[
  {
    "id": "133",
    "latitude": "52.33837",
    "longitude": "4.6369185",
    "naam": "Cruquiusbrug",
    "stad": "Heemstede",
    "provincie": "Noord-Holland",
    "ndwID": [
      "NLCRU002020472000143"
    ]
  },
  {
    "id": "134",
    "latitude": "52.457787",
    "longitude": "4.8125887",
    "naam": "Willem Alexanderbrug",
    "stad": "Zaandam",
    "provincie": "Noord-Holland",
    "ndwID": [
      "NLKGZ002360563600050"
    ]
  },
  {
    "id": "135",
    "latitude": "52.491203",
    "longitude": "4.7986946",
    "naam": "Zaanbrug",
    "stad": "Wormer",
    "provincie": "Noord-Holland",
    "ndwID": [
      "NLWMO002360566200097"
    ]
  },
  {
    "id": "136",
    "latitude": "52.305927",
    "longitude": "4.809617",
    "naam": "Bosrandbrug",
    "stad": "Aalsmeer",
    "provincie": "Noord-Holland",
    "ndwID": [
      "NLSPL002120533400126"
    ]
  },
  {
    "id": "137",
    "latitude": "52.273666",
    "longitude": "4.7509565",
    "naam": "Aalsmeerderbrug",
    "stad": "Aalsmeer",
    "provincie": "Noord-Holland",
    "ndwID": [
      "NLAMB002120533600182"
    ]
  },
  {
    "id": "138",
    "latitude": "52.354774",
    "longitude": "4.853552",
    "naam": "Theophile de Bockbrug",
    "stad": "Amsterdam",
    "provincie": "Noord-Holland",
    "ndwID": [
      "NLAMS002120531800054"
    ]
  },
  {
    "id": "139",
    "latitude": "52.161224",
    "longitude": "4.5146937",
    "naam": "Spanjaardsbrug",
    "stad": "Leiden",
    "provincie": "Zuid-Holland",
    "ndwID": [
      "NLLID002010537800141"
    ]
  },
  {
    "id": "140",
    "latitude": "51.859573",
    "longitude": "4.3400955",
    "naam": "Spijkenisserbrug",
    "stad": "Spijkenisse",
    "provincie": "Zuid-Holland",
    "ndwID": [
      "NLSPI001110572700266"
    ]
  },
  {
    "id": "141",
    "latitude": "52.3806",
    "longitude": "4.7528152",
    "naam": "Halfwegbrug",
    "stad": "Halfweg",
    "provincie": "Noord-Holland",
    "ndwID": [
      "NLZWA002180390800114"
    ]
  },
  {
    "id": "142",
    "latitude": "52.380165",
    "longitude": "4.641231",
    "naam": "Gravestenenbrug",
    "stad": "Haarlem",
    "provincie": "Noord-Holland",
    "ndwID": [
      "NLHAA002020470400089"
    ]
  },
  {
    "id": "143",
    "latitude": "53.2259208",
    "longitude": "6.5938866",
    "naam": "Oostersluisbrug",
    "stad": "Groningen",
    "provincie": "Groningen",
    "ndwID": [
      "NLGRQ000600502500270"
    ]
  },
  {
    "id": "144",
    "latitude": "52.675854",
    "longitude": "4.7484593",
    "naam": "Rekervlotbrug",
    "stad": "Koedijk",
    "provincie": "Noord-Holland",
    "ndwID": [
      "NLBEG002346463100460"
    ]
  },
  {
    "id": "145",
    "latitude": "52.010296",
    "longitude": "4.369205",
    "naam": "Oostpoortbrug",
    "stad": "Delft",
    "provincie": "Zuid-Holland",
    "ndwID": [
      "NLDFT002010542100371"
    ]
  },
  {
    "id": "146",
    "latitude": "52.376766",
    "longitude": "4.6403046",
    "naam": "Lange brug",
    "stad": "Haarlem",
    "provincie": "Noord-Holland",
    "ndwID": [
      "NLHAA002020470800094"
    ]
  },
  {
    "id": "147",
    "latitude": "52.381813",
    "longitude": "4.8790374",
    "naam": "Kattenslootbrug",
    "stad": "Amsterdam",
    "provincie": "Noord-Holland",
    "ndwID": [
      "NLAMS002120530600018"
    ]
  },
  {
    "id": "148",
    "latitude": "52.379047",
    "longitude": "4.872856",
    "naam": "Hallbrug",
    "stad": "Amsterdam",
    "provincie": "Noord-Holland",
    "ndwID": [
      "NLAMS002120530800024"
    ]
  },
  {
    "id": "149",
    "latitude": "52.467293",
    "longitude": "4.6117926",
    "naam": "Noordersluis Oost",
    "stad": "IJmuiden",
    "provincie": "Noord-Holland",
    "ndwID": [
      "NLIJM0233Y5127000147"
    ]
  },
  {
    "id": "150",
    "latitude": "51.871284",
    "longitude": "4.3311453",
    "naam": "Botlekbrug",
    "stad": "Botlek",
    "provincie": "Zuid-Holland",
    "ndwID": [
      "NLRTM001110888700281"
    ]
  },
  {
    "id": "151",
    "latitude": "52.317944",
    "longitude": "4.611804",
    "naam": "Bennebroekerbrug",
    "stad": "Zwaanshoek",
    "provincie": "Noord-Holland",
    "ndwID": [
      "NLZHO002020472400175"
    ]
  },
  {
    "id": "152",
    "latitude": "52.39526",
    "longitude": "4.6514597",
    "naam": "Waarderbrug",
    "stad": "Haarlem",
    "provincie": "Noord-Holland",
    "ndwID": [
      "NLHAA002020469100067"
    ]
  },
  {
    "id": "153",
    "latitude": "52.28864",
    "longitude": "4.5940433",
    "naam": "Hillegommerbrug",
    "stad": "Hillegom",
    "provincie": "Zuid-Holland",
    "ndwID": [
      "NLHIL002020472700211"
    ]
  },
  {
    "id": "154",
    "latitude": "52.350975",
    "longitude": "4.852376",
    "naam": "Zeilbrug",
    "stad": "Amsterdam",
    "provincie": "Noord-Holland",
    "ndwID": [
      "NLAMS002120532000058"
    ]
  },
  {
    "id": "155",
    "latitude": "52.371426",
    "longitude": "4.640142",
    "naam": "Buitenrustbrug",
    "stad": "Haarlem",
    "provincie": "Noord-Holland",
    "ndwID": [
      "NLHAA002020471100102"
    ]
  },
  {
    "id": "156",
    "latitude": "52.255688",
    "longitude": "4.5689406",
    "naam": "Lisserbrug",
    "stad": "Lisse",
    "provincie": "Noord-Holland",
    "ndwID": [
      "NLLBK002020473200254"
    ]
  },
  {
    "id": "157",
    "latitude": "52.27364",
    "longitude": "4.5773664",
    "naam": "Elsbroekerbrug",
    "stad": "Bennebroek",
    "provincie": "Noord-Holland",
    "ndwID": [
      "NLLBK002020472900232"
    ]
  },
  {
    "id": "158",
    "latitude": "52.382927",
    "longitude": "4.6429863",
    "naam": "Catharijnebrug",
    "stad": "Haarlem",
    "provincie": "Noord-Holland",
    "ndwID": [
      "NLHAA002020470100083"
    ]
  },
  {
    "id": "159",
    "latitude": "52.37931",
    "longitude": "4.6382084",
    "naam": "Melkbrug",
    "stad": "Haarlem",
    "provincie": "Noord-Holland",
    "ndwID": [
      "NLHAA002020470600091"
    ]
  },
  {
    "id": "160",
    "latitude": "52.311657",
    "longitude": "4.8152394",
    "naam": "Schipholdraaibrug",
    "stad": "Schiphol ",
    "provincie": "Noord-Holland",
    "ndwID": [
      "NLSPL002120533100119"
    ]
  },
  {
    "id": "161",
    "latitude": "52.384903",
    "longitude": "4.882134",
    "naam": "Willemsbrug",
    "stad": "Amsterdam",
    "provincie": "Noord-Holland",
    "ndwID": [
      "NLAMS002120530400014"
    ]
  },
  {
    "id": "162",
    "latitude": "52.35405",
    "longitude": "4.6359143",
    "naam": "Schouwbroekerbrug",
    "stad": "Haarlem",
    "provincie": "Noord-Holland",
    "ndwID": [
      "NLHMS002020471600123"
    ]
  },
  {
    "id": "163",
    "latitude": "52.386032",
    "longitude": "4.647417",
    "naam": "Prinsenbrug",
    "stad": "Haarlem",
    "provincie": "Noord-Holland",
    "ndwID": [
      "NLHAA002020469300078"
    ]
  },
  {
    "id": "164",
    "latitude": "52.402794",
    "longitude": "4.656927",
    "naam": "Schoterbrug",
    "stad": "Haarlem",
    "provincie": "Noord-Holland",
    "ndwID": [
      "NLHAA002026292300055"
    ]
  },
  {
    "id": "165",
    "latitude": "52.385983",
    "longitude": "4.8830304",
    "naam": "Singelgrachtbrug",
    "stad": "Amsterdam",
    "provincie": "Noord-Holland",
    "ndwID": [
      "NLAMS002120530200013"
    ]
  },
  {
    "id": "166",
    "latitude": "52.375435",
    "longitude": "4.8698316",
    "naam": "Beltbrug",
    "stad": "Amsterdam",
    "provincie": "Noord-Holland",
    "ndwID": [
      "NLAMS002120531000028"
    ]
  },
  {
    "id": "167",
    "latitude": "52.370132",
    "longitude": "4.8649955",
    "naam": "Wiegbrug",
    "stad": "Amsterdam",
    "provincie": "Noord-Holland",
    "ndwID": [
      "NLAMS002120531200035"
    ]
  },
  {
    "id": "168",
    "latitude": "52.39044",
    "longitude": "4.8854675",
    "naam": "Westerkeersluisbrug",
    "stad": "Amsterdam",
    "provincie": "Noord-Holland",
    "ndwID": [
      "NLAMS002120530000008"
    ]
  },
  {
    "id": "169",
    "latitude": "52.364616",
    "longitude": "4.8600016",
    "naam": "Kinkerbrug",
    "stad": "Amsterdam",
    "provincie": "Noord-Holland",
    "ndwID": [
      "NLAMS002120531400042"
    ]
  },
  {
    "id": "170",
    "latitude": "52.385628",
    "longitude": "4.646294",
    "naam": "Spaarnebrug",
    "stad": "Haarlem",
    "provincie": "Noord-Holland",
    "ndwID": [
      "NLHAA002020469800079"
    ]
  },
  {
    "id": "171",
    "latitude": "52.357864",
    "longitude": "4.8548565",
    "naam": "Overtoomsebrug",
    "stad": "Amsterdam",
    "provincie": "Noord-Holland",
    "ndwID": [
      "NLAMS002120531600051"
    ]
  },
  {
    "id": "172",
    "latitude": "52.837307",
    "longitude": "4.7535076",
    "naam": "Vlotbrug",
    "stad": "t Zand",
    "provincie": "Noord-Holland",
    "ndwID": [
      "NLTZA002340561000666"
    ]
  },
  {
    "id": "173",
    "latitude": "52.024437",
    "longitude": "4.6677647",
    "naam": "Coenecoopbrug",
    "stad": "Waddinxveen",
    "provincie": "Zuid-Holland",
    "ndwID": [
      "NLGOU002700535900110"
    ]
  },
  {
    "id": "174",
    "latitude": "52.51946",
    "longitude": "4.7847238",
    "naam": "Beatrixbrug",
    "stad": "West-Knollendam",
    "provincie": "Noord-Holland",
    "ndwID": [
      "NLWAM002360566800138"
    ]
  },
  {
    "id": "175",
    "latitude": "51.920258",
    "longitude": "4.4997964",
    "naam": "Boerengatbrug",
    "stad": "Rotterdam",
    "provincie": "Zuid-Holland",
    "ndwID": [
      "NLRTM0102D6541700002"
    ]
  },
  {
    "id": "176",
    "latitude": "52.75394",
    "longitude": "4.682018",
    "naam": "Burgervlotbrug",
    "stad": "Noordhollandsch Kanaal",
    "provincie": "Noord-Holland",
    "ndwID": [
      "NLBVG002340560300560"
    ]
  },
  {
    "id": "177",
    "latitude": "52.061043",
    "longitude": "4.354498",
    "naam": "Oude Tolbrug",
    "stad": "Voorburg",
    "provincie": "Zuid-Holland",
    "ndwID": [
      "NLVOB002010540600304"
    ]
  },
  {
    "id": "178",
    "latitude": "52.169502",
    "longitude": "4.515477",
    "naam": "Zijlbrug",
    "stad": "Leiden",
    "provincie": "Zuid-Holland",
    "ndwID": [
      "NLLID002010537400132",
      "NLLID002010537600132"
    ]
  },
  {
    "id": "179",
    "latitude": "52.37135",
    "longitude": "4.7584515",
    "naam": "Zwanenburg fietsbrug",
    "stad": "Zwanenburg",
    "provincie": "Noord-Holland",
    "ndwID": [
      "NLBAD002186482700125"
    ]
  },
  {
    "id": "180",
    "latitude": "52.730312",
    "longitude": "6.2028337",
    "naam": "Pijlerbrug",
    "stad": "Havelte",
    "provincie": "Drenthe",
    "ndwID": [
      "NLMEP000750592500384"
    ]
  },
  {
    "id": "181",
    "latitude": "51.909706",
    "longitude": "4.449618",
    "naam": "Lage Erfbrug",
    "stad": "Rotterdam",
    "provincie": "Zuid-Holland",
    "ndwID": [
      "NLRTM002010545500506",
      "NLRTM002010545600506"
    ]
  },
  {
    "id": "182",
    "latitude": "52.230625",
    "longitude": "4.6696935",
    "naam": "Leimuiderbrug",
    "stad": "Leimuiden",
    "provincie": "Noord-Holland",
    "ndwID": [
      "NLLRU002120533900259"
    ]
  },
  {
    "id": "183",
    "latitude": "52.074272",
    "longitude": "4.660209",
    "naam": "Hefbrug Boskoop",
    "stad": "Boskoop",
    "provincie": "Zuid-Holland",
    "ndwID": [
      "NLGOU002700535500051"
    ]
  },
  {
    "id": "184",
    "latitude": "52.0439",
    "longitude": "4.659729",
    "naam": "Hefbrug",
    "stad": "Waddinxveen",
    "provincie": "Zuid-Holland",
    "ndwID": [
      "NLGOU002700535700086"
    ]
  },
  {
    "id": "185",
    "latitude": "53.326138",
    "longitude": "5.9878",
    "naam": "Iebrege",
    "stad": "Dokkum",
    "provincie": "Friesland",
    "ndwID": [
      "NLDOK000270320700199"
    ]
  },
  {
    "id": "186",
    "latitude": "53.17563",
    "longitude": "5.4140525",
    "naam": "Sasbrug",
    "stad": "Harlingen",
    "provincie": "Friesland",
    "ndwID": [
      "NLHAR0023A0337200003"
    ]
  },
  {
    "id": "187",
    "latitude": "51.916573",
    "longitude": "4.443998",
    "naam": "Mathenesserbrug",
    "stad": "Rotterdam",
    "provincie": "Zuid-Holland",
    "ndwID": [
      "NLRTM002010545100498"
    ]
  },
  {
    "id": "188",
    "latitude": "51.93778",
    "longitude": "4.417453",
    "naam": "Hogebrug",
    "stad": "Rotterdam",
    "provincie": "Zuid-Holland",
    "ndwID": [
      "NLRTM002012254500468"
    ]
  },
  {
    "id": "189",
    "latitude": "52.006653",
    "longitude": "4.3636165",
    "naam": "Hambrug",
    "stad": "Delft",
    "provincie": "Zuid-Holland",
    "ndwID": [
      "NLDFT002010542600377"
    ]
  },
  {
    "id": "190",
    "latitude": "51.688705",
    "longitude": "4.4076667",
    "naam": "Volkeraksluizen Brug",
    "stad": "Willemstad",
    "provincie": "Noord-Brabant",
    "ndwID": [
      "NLWIS001430522800025"
    ]
  },
  {
    "id": "191",
    "latitude": "52.340714",
    "longitude": "4.79208",
    "naam": "Sloterbrug",
    "stad": "Sloten",
    "provincie": "Noord-Holland",
    "ndwID": [
      "NLBAD002180391000173"
    ]
  },
  {
    "id": "192",
    "latitude": "52.852657",
    "longitude": "5.677134",
    "naam": "Prinses Margrietsluis",
    "stad": "Lemmer",
    "provincie": "Friesland",
    "ndwID": [
      "NLLMR000210357200637"
    ]
  },
  {
    "id": "193",
    "latitude": "52.001648",
    "longitude": "4.363595",
    "naam": "Abtswoudsebrug",
    "stad": "Delft",
    "provincie": "Zuid-Holland",
    "ndwID": [
      "NLDFT002010542800383",
      "NLDFT002010542900384",
      "NLDFT002010543000384"
    ]
  },
  {
    "id": "194",
    "latitude": "52.141876",
    "longitude": "4.6572504",
    "naam": "Dr. Albert Schweitzerbrug",
    "stad": "Alphen aan den Rijn",
    "provincie": "Zuid-Holland",
    "ndwID": [
      "NLAPN002064916600385"
    ]
  },
  {
    "id": "195",
    "latitude": "53.2142142496",
    "longitude": "6.5996021032",
    "naam": "Lage Euvelgunnerbrug",
    "stad": "Groningen",
    "provincie": "Groningen",
    "ndwID": [
      "NLGRQ000130331500009"
    ]
  },
  {
    "id": "196",
    "latitude": "53.21385",
    "longitude": "6.5998435",
    "naam": "Langmanbrug\n",
    "stad": "Groningen",
    "provincie": "Groningen",
    "ndwID": [
      "NLGRQ000135923600009"
    ]
  },
  {
    "id": "197",
    "latitude": "52.01381",
    "longitude": "4.3650074",
    "naam": "Koepoortbrug",
    "stad": "Delft",
    "provincie": "Zuid-Holland",
    "ndwID": [
      "NLDFT002010541900366"
    ]
  },
  {
    "id": "198",
    "latitude": "53.058323",
    "longitude": "5.519511",
    "naam": "Kruiswaterbrug",
    "stad": "Bolsward",
    "provincie": "Friesland",
    "ndwID": [
      "NLBOL000560340600136"
    ]
  },
  {
    "id": "199",
    "latitude": "53.226128",
    "longitude": "6.6120715",
    "naam": "Driebondsbrug",
    "stad": "Groningen",
    "provincie": "Groningen",
    "ndwID": [
      "NLGRQ000010352400012"
    ]
  },
  {
    "id": "200",
    "latitude": "52.08023",
    "longitude": "4.3985147",
    "naam": "Leidschendambrug",
    "stad": "Leidschendam",
    "provincie": "Zuid-Holland",
    "ndwID": [
      "NLLDS002010539500266"
    ]
  },
  {
    "id": "201",
    "latitude": "53.19293",
    "longitude": "5.8359575",
    "naam": "Greunsbrug",
    "stad": "Leeuwarden",
    "provincie": "Friesland",
    "ndwID": [
      "NLLWR000280511000006"
    ]
  },
  {
    "id": "202",
    "latitude": "52.140675",
    "longitude": "4.4872756",
    "naam": "Lammebrug",
    "stad": "Leiden",
    "provincie": "Zuid-Holland",
    "ndwID": [
      "NLLID002010538900173"
    ]
  },
  {
    "id": "203",
    "latitude": "52.43887",
    "longitude": "4.8262024",
    "naam": "Wilhelminabrug",
    "stad": "Zaandam",
    "provincie": "Noord-Holland",
    "ndwID": [
      "NLZAA002360562200026"
    ]
  },
  {
    "id": "204",
    "latitude": "52.46765",
    "longitude": "4.6058445",
    "naam": "Noordersluis West",
    "stad": "IJmuiden",
    "provincie": "Noord-Holland",
    "ndwID": [
      "NLIJM0233Y5126800143"
    ]
  },
  {
    "id": "205",
    "latitude": "52.106644",
    "longitude": "4.43534",
    "naam": "Overhaalbrug\n",
    "stad": "Voorschoten",
    "provincie": "Zuid-Holland",
    "ndwID": [
      "NLVOS002015537100227"
    ]
  },
  {
    "id": "206",
    "latitude": "53.183277",
    "longitude": "5.7968307",
    "naam": "Harinxmabrug",
    "stad": "Leeuwarden",
    "provincie": "Friesland",
    "ndwID": [
      "NLLWR000220361100277",
      "NLLWR000220361100276"
    ]
  },
  {
    "id": "207",
    "latitude": "52.63786",
    "longitude": "6.078169",
    "naam": "Meppelerdiepbrug",
    "stad": "Zwartsluis",
    "provincie": "Overijssel",
    "ndwID": [
      "NLZWS000880439500003"
    ]
  },
  {
    "id": "208",
    "latitude": "51.910553",
    "longitude": "4.496155",
    "naam": "Binnenhavenbrug",
    "stad": "Rotterdam",
    "provincie": "Zuid-Holland",
    "ndwID": [
      "NLRTM102C10317000001"
    ]
  },
  {
    "id": "209",
    "latitude": "52.385963",
    "longitude": "4.733899",
    "naam": "Weerenbrug",
    "stad": "Zwanenburg",
    "provincie": "Noord-Holland",
    "ndwID": [
      "NLZWA002184825200099"
    ]
  },
  {
    "id": "210",
    "latitude": "52.142937",
    "longitude": "4.7021174",
    "naam": "Zegerbrug",
    "stad": "Aarlanderveen",
    "provincie": "Zuid-Holland",
    "ndwID": [
      "NLADV002200484400382"
    ]
  },
  {
    "id": "211",
    "latitude": "52.11753",
    "longitude": "4.6737647",
    "naam": "Hefbrug Gouwsluis",
    "stad": "Alphen aan den Rijn",
    "provincie": "Zuid-Holland",
    "ndwID": [
      "NLAPN002700535000002"
    ]
  },
  {
    "id": "212",
    "latitude": "51.95562",
    "longitude": "4.518532",
    "naam": "Prinses Irenebrug",
    "stad": "Rotterdam",
    "provincie": "Zuid-Holland",
    "ndwID": [
      "NLRTM002100546800076"
    ]
  },
  {
    "id": "213",
    "latitude": "52.383656",
    "longitude": "4.744984",
    "naam": "Bietenbrug",
    "stad": "Halfweg",
    "provincie": "Noord-Holland",
    "ndwID": [
      "NLZWA002186482300107"
    ]
  },
  {
    "id": "214",
    "latitude": "52.154823",
    "longitude": "4.513794",
    "naam": "Wilhelminabrug",
    "stad": "Leiden",
    "provincie": "Zuid-Holland",
    "ndwID": [
      "NLLID002010538000148"
    ]
  },
  {
    "id": "215",
    "latitude": "52.50042",
    "longitude": "4.794691",
    "naam": "Prins Clausbrug",
    "stad": "Wormer",
    "provincie": "Noord-Holland",
    "ndwID": [
      "NLWMO002360566400113"
    ]
  },
  {
    "id": "216",
    "latitude": "53.21713",
    "longitude": "6.580355",
    "naam": "Driebondsbrug",
    "stad": "Groningen",
    "provincie": "Groningen",
    "ndwID": [
      "NLGRQ000060344500012"
    ]
  },
  {
    "id": "217",
    "latitude": "52.146908",
    "longitude": "4.524245",
    "naam": "Rhijnvreugdbrug",
    "stad": "Leiderdorp",
    "provincie": "Zuid-Holland",
    "ndwID": [
      "NLZOU002060527800491"
    ]
  },
  {
    "id": "218",
    "latitude": "53.234657",
    "longitude": "6.529946",
    "naam": "Plataanbrug",
    "stad": "Groningen",
    "provincie": "Groningen",
    "ndwID": [
      "NLGRQ000060347300064"
    ]
  },
  {
    "id": "219",
    "latitude": "52.14969",
    "longitude": "4.5108156",
    "naam": "Julius Ceasarbrug",
    "stad": "Leiden",
    "provincie": "Zuid-Holland",
    "ndwID": [
      "NLLID002015944400152"
    ]
  },
  {
    "id": "220",
    "latitude": "53.179028",
    "longitude": "5.419637",
    "naam": "Tsjerk Hiddessluizen",
    "stad": "Harlingen",
    "provincie": "Friesland",
    "ndwID": [
      "NLHAR000220358200004"
    ]
  },
  {
    "id": "221",
    "latitude": "52.15214",
    "longitude": "4.522181",
    "naam": "Leiderdorpsebrug",
    "stad": "Leiden",
    "provincie": "Zuid-Holland",
    "ndwID": [
      "NLLID002060528100496"
    ]
  },
  {
    "id": "222",
    "latitude": "52.63224",
    "longitude": "4.75452",
    "naam": "Friesebrug",
    "stad": "Alkmaar",
    "provincie": "Noord-Holland",
    "ndwID": [
      "NLALK002340558100405"
    ]
  },
  {
    "id": "224",
    "latitude": "52.12581",
    "longitude": "4.462549",
    "naam": "Vlietlandbrug",
    "stad": "Voorschoten",
    "provincie": "Zuid-Holland",
    "ndwID": [
      "NLLDS002015536900198"
    ]
  },
  {
    "id": "227",
    "latitude": "52.518303",
    "longitude": "6.0815973",
    "naam": "Holtenbroekerbrug",
    "stad": "Zwolle",
    "provincie": "Overijssel",
    "ndwID": [
      "NLZWO000870437600011"
    ]
  },
  {
    "id": "228",
    "latitude": "53.219173",
    "longitude": "6.555893",
    "naam": "Plantsoenbrug",
    "stad": "Groningen",
    "provincie": "Groningen",
    "ndwID": [
      "NLGRQ000060346400036"
    ]
  },
  {
    "id": "229",
    "latitude": "52.514927",
    "longitude": "6.0879626",
    "naam": "Hofvlietbrug",
    "stad": "Zwolle",
    "provincie": "Overijssel",
    "ndwID": [
      "NLZWO000870437800016"
    ]
  },
  {
    "id": "230",
    "latitude": "53.21878",
    "longitude": "6.557765",
    "naam": "Visserbrug",
    "stad": "Groningen",
    "provincie": "Groningen",
    "ndwID": [
      "NLGRQ000060346200035"
    ]
  },
  {
    "id": "231",
    "latitude": "53.19275",
    "longitude": "6.5629554",
    "naam": "Van Ketwich Verschuurbrug",
    "stad": "Groningen",
    "provincie": "Groningen",
    "ndwID": [
      "NLGRQ000200509500259"
    ]
  },
  {
    "id": "232",
    "latitude": "52.648937",
    "longitude": "4.743178",
    "naam": "Vlielandbrug",
    "stad": "Alkmaar",
    "provincie": "Noord-Holland",
    "ndwID": [
      "NLALK002340559600427"
    ]
  },
  {
    "id": "233",
    "latitude": "51.912426",
    "longitude": "4.4833007",
    "naam": "Nieuwe Leuvebrug",
    "stad": "Rotterdam",
    "provincie": "Zuid-Holland",
    "ndwID": [
      "NLRTM0102E0317500003"
    ]
  },
  {
    "id": "234",
    "latitude": "51.901276",
    "longitude": "4.2269144",
    "naam": "Calandbrug",
    "stad": "Botlek",
    "provincie": "Zuid-Holland",
    "ndwID": [
      "NLRTM001164917000018"
    ]
  },
  {
    "id": "235",
    "latitude": "52.66033",
    "longitude": "4.7451797",
    "naam": "Koedijkervlotbrug",
    "stad": "Alkmaar",
    "provincie": "Noord-Holland",
    "ndwID": [
      "NLALK002340559800440"
    ]
  },
  {
    "id": "236",
    "latitude": "52.939503",
    "longitude": "5.7904515",
    "naam": "Scharsterrijnbrug",
    "stad": "Scharsterbrug",
    "provincie": "Friesland",
    "ndwID": [
      "NLSBG000450352100089"
    ]
  },
  {
    "id": "237",
    "latitude": "53.212917",
    "longitude": "5.8027368",
    "naam": "Eebrug",
    "stad": "Leeuwarden",
    "provincie": "Friesland",
    "ndwID": [
      "NLLWR000270321600402"
    ]
  },
  {
    "id": "238",
    "latitude": "51.836246",
    "longitude": "4.974045",
    "naam": "Concordiabrug",
    "stad": "Gorinchem",
    "provincie": "Zuid-Holland",
    "ndwID": [
      "NLGOR001040552000224"
    ]
  },
  {
    "id": "239",
    "latitude": "52.224155",
    "longitude": "4.5523715",
    "naam": "Kaagbrug",
    "stad": "Sassenheim",
    "provincie": "Noord-Holland",
    "ndwID": [
      "NLSAS002020473400294"
    ]
  },
  {
    "id": "240",
    "latitude": "52.31273",
    "longitude": "4.8158274",
    "naam": "Schipholbrug",
    "stad": "Schiphol",
    "provincie": "Noord-Holland",
    "ndwID": [
      "NLSPL002120532600117"
    ]
  },
  {
    "id": "241",
    "latitude": "53.197872",
    "longitude": "5.774509",
    "naam": "Hermesbrug",
    "stad": "Leeuwarden",
    "provincie": "Friesland",
    "ndwID": [
      "NLLWR000270322500435"
    ]
  },
  {
    "id": "242",
    "latitude": "52.70767",
    "longitude": "4.7162623",
    "naam": "Schoorldammerbrug",
    "stad": "Schoorldam",
    "provincie": "Noord-Holland",
    "ndwID": [
      "NLWMH002340560000502"
    ]
  },
  {
    "id": "243",
    "latitude": "51.92119",
    "longitude": "4.498123",
    "naam": "Oostbrug",
    "stad": "Rotterdam",
    "provincie": "Zuid-Holland",
    "ndwID": [
      "NLRTM010874784600001"
    ]
  },
  {
    "id": "244",
    "latitude": "51.856346",
    "longitude": "4.654287",
    "naam": "Alblasserdamsebrug",
    "stad": "Alblasserdam",
    "provincie": "Zuid-Holland",
    "ndwID": [
      "NLABL001010577301219"
    ]
  },
  {
    "id": "245",
    "latitude": "52.338062",
    "longitude": "4.8469114",
    "naam": "Schinkelbrug (A10)",
    "stad": "Amsterdam",
    "provincie": "Noord-Holland",
    "ndwID": [
      "NLAMS002122252400073"
    ]
  },
  {
    "id": "247",
    "latitude": "52.7864",
    "longitude": "4.707442",
    "naam": "St Maartensvlotbrug",
    "stad": "Schagen",
    "provincie": "Noord-Holland",
    "ndwID": [
      "NLSMV002340560500600"
    ]
  },
  {
    "id": "248",
    "latitude": "53.154995",
    "longitude": "7.054124",
    "naam": "Beertsterbrug",
    "stad": "Winschoten",
    "provincie": "Groningen",
    "ndwID": [
      "NLWSC000130334600341"
    ]
  },
  {
    "id": "249",
    "latitude": "52.05189",
    "longitude": "4.3431177",
    "naam": "Hoornbrug",
    "stad": "Den haag",
    "provincie": "Zuid-Holland",
    "ndwID": [
      "NLRYS002010541000317"
    ]
  },
  {
    "id": "250",
    "latitude": "53.124733",
    "longitude": "6.6058846",
    "naam": "Brug de Punt",
    "stad": "De Punt",
    "provincie": "Groningen",
    "ndwID": [
      "NLHRE000200508800175"
    ]
  },
  {
    "id": "251",
    "latitude": "51.908237",
    "longitude": "4.488891",
    "naam": "Erasmusbrug",
    "stad": "Rotterdam",
    "provincie": "Zuid-Holland",
    "ndwID": [
      "NLRTM0102C0357800016"
    ]
  },
  {
    "id": "252",
    "latitude": "52.451756",
    "longitude": "4.8192334",
    "naam": "Prins Bernhardbrug",
    "stad": "Zaandam",
    "provincie": "Noord-Holland",
    "ndwID": [
      "NLZAA002360562600041"
    ]
  },
  {
    "id": "253",
    "latitude": "53.202965",
    "longitude": "6.5635085",
    "naam": "Julianabrug",
    "stad": "Groningen",
    "provincie": "Groningen",
    "ndwID": [
      "NLGRQ000200509900271"
    ]
  },
  {
    "id": "254",
    "latitude": "52.06635",
    "longitude": "4.3660493",
    "naam": "Kerkbrug",
    "stad": "Voorburg",
    "provincie": "Zuid-Holland",
    "ndwID": [
      "NLVOB002010540400294"
    ]
  },
  {
    "id": "255",
    "latitude": "51.91276",
    "longitude": "4.497941",
    "naam": "Koninginnebrug",
    "stad": "Rotterdam",
    "provincie": "Zuid-Holland",
    "ndwID": [
      "NLRTM0102C0357600007"
    ]
  },
  {
    "id": "256",
    "latitude": "53.17131",
    "longitude": "6.7283535",
    "naam": "Rengersbrug",
    "stad": "Foxhol",
    "provincie": "Groningen",
    "ndwID": [
      "NLFOX000130332500112"
    ]
  },
  {
    "id": "257",
    "latitude": "52.07303",
    "longitude": "4.377107",
    "naam": "Wijkerbrug",
    "stad": "Voorburg",
    "provincie": "Zuid-Holland",
    "ndwID": [
      "NLVOB002010540200283"
    ]
  },
  {
    "id": "258",
    "latitude": "53.168137",
    "longitude": "6.7554836",
    "naam": "Knijpsbrug\n",
    "stad": "Hoogezand",
    "provincie": "Groningen",
    "ndwID": [
      "NLHZD000130333000131"
    ]
  },
  {
    "id": "259",
    "latitude": "52.019646",
    "longitude": "4.352607",
    "naam": "Reineveldbrug",
    "stad": "Delft",
    "provincie": "Zuid-Holland",
    "ndwID": [
      "NLDFT002010541300355"
    ]
  },
  {
    "id": "260",
    "latitude": "51.823383",
    "longitude": "4.705803",
    "naam": "Beneden Merwedebrug",
    "stad": "Dordrecht",
    "provincie": "Zuid-Holland",
    "ndwID": [
      "NLDOR001010577001143"
    ]
  },
  {
    "id": "262",
    "latitude": "52.135757",
    "longitude": "4.4680004",
    "naam": "Hooghkamerbrug",
    "stad": "Voorschoten",
    "provincie": "Zuid-Holland",
    "ndwID": [
      "NLVOS002055539300003"
    ]
  },
  {
    "id": "263",
    "latitude": "52.646595",
    "longitude": "4.743905",
    "naam": "Huiswaarderbrug",
    "stad": "Alkmaar",
    "provincie": "Noord-Holland",
    "ndwID": [
      "NLALK002340559300424"
    ]
  },
  {
    "id": "264",
    "latitude": "52.36794",
    "longitude": "6.640193",
    "naam": "Dollegoorbrug",
    "stad": "Almelo",
    "provincie": "Overijssel",
    "ndwID": [
      "NLALM000820602600158"
    ]
  },
  {
    "id": "265",
    "latitude": "52.150726",
    "longitude": "4.4641004",
    "naam": "Waddingerbrug",
    "stad": "Leiden",
    "provincie": "Zuid-Holland",
    "ndwID": [
      "NLLID002050419800020"
    ]
  },
  {
    "id": "266",
    "latitude": "53.18526",
    "longitude": "5.9888415",
    "naam": "Brug Burgum",
    "stad": "Bergum",
    "provincie": "Friesland",
    "ndwID": [
      "NLBGU000210355300167"
    ]
  },
  {
    "id": "268",
    "latitude": "52.81293",
    "longitude": "4.7387013",
    "naam": "Stolperbasculebrug",
    "stad": "Schagen",
    "provincie": "Noord-Holland",
    "ndwID": [
      "NLSBU002340560700637"
    ]
  },
  {
    "id": "269",
    "latitude": "51.906727",
    "longitude": "4.463942",
    "naam": "Parkhavenbrug",
    "stad": "Rotterdam",
    "provincie": "Zuid-Holland",
    "ndwID": [
      "NLRTM002010546300519"
    ]
  },
  {
    "id": "270",
    "latitude": "51.90807",
    "longitude": "4.4630675",
    "naam": "Coolhavenbrug",
    "stad": "Rotterdam",
    "provincie": "Zuid-Holland",
    "ndwID": [
      "NLRTM002010546000517"
    ]
  },
  {
    "id": "271",
    "latitude": "52.118767",
    "longitude": "4.675793",
    "naam": "Steekterbrug",
    "stad": "Alphen aan den Rijn",
    "provincie": "Zuid-Holland",
    "ndwID": [
      "NLAPN002060527300351"
    ]
  },
  {
    "id": "272",
    "latitude": "53.200283",
    "longitude": "5.816955",
    "naam": "2e Kanaalsbrug",
    "stad": "Leeuwarden",
    "provincie": "Friesland",
    "ndwID": [
      "NLLWR000280511700025"
    ]
  },
  {
    "id": "273",
    "latitude": "51.82748",
    "longitude": "4.942429",
    "naam": "Merwedebrug",
    "stad": "Gorinchem",
    "provincie": "Zuid-Holland",
    "ndwID": [
      "NLGOR001010576200983"
    ]
  },
  {
    "id": "274",
    "latitude": "51.908535",
    "longitude": "4.458292",
    "naam": "Pieter de Hoochbrug",
    "stad": "Rotterdam",
    "provincie": "Zuid-Holland",
    "ndwID": [
      "NLRTM002010545700513"
    ]
  },
  {
    "id": "276",
    "latitude": "52.902435",
    "longitude": "4.7876806",
    "naam": "Koegrasbrug",
    "stad": "Den Helder",
    "provincie": "Noord-Holland",
    "ndwID": [
      "n"
    ]
  },
  {
    "id": "277",
    "latitude": "52.4132740506",
    "longitude": "4.68190463",
    "naam": "Rijnlandsbrug",
    "stad": "Spaarndam",
    "provincie": "Noord-Holland",
    "ndwID": [
      "NLSPD002020468900036"
    ]
  },
  {
    "id": "278",
    "latitude": "52.6336154218",
    "longitude": "4.7500312328",
    "naam": "Ringersbrug",
    "stad": "Alkmaar",
    "provincie": "Noord-Holland",
    "ndwID": [
      "NLALK002340558400407"
    ]
  },
  {
    "id": "279",
    "latitude": "52.63865",
    "longitude": "4.746336",
    "naam": "Spoorbrug",
    "stad": "Alkmaar",
    "provincie": "Noord-Holland",
    "ndwID": [
      "n"
    ]
  },
  {
    "id": "280",
    "latitude": "52.954823",
    "longitude": "4.7798862",
    "naam": "Vice Admiraal Moormanbrug",
    "stad": "Den helder",
    "provincie": "Noord-Holland",
    "ndwID": [
      "n"
    ]
  },
  {
    "id": "281",
    "latitude": "52.471471341",
    "longitude": "4.8134273113",
    "naam": "Julianabrug",
    "stad": "Zaandijk",
    "provincie": "Noord-Holland",
    "ndwID": [
      "NLZAD002360564800068"
    ]
  },
  {
    "id": "282",
    "latitude": "52.9464",
    "longitude": "4.7869225",
    "naam": "Koopvaardersschutsluis",
    "stad": "Den helder",
    "provincie": "Noord-Holland",
    "ndwID": [
      "n"
    ]
  },
  {
    "id": "283",
    "latitude": "52.4277921936",
    "longitude": "4.8344022041",
    "naam": "Dr. J.M. Den Uylbrug",
    "stad": "Zaandam",
    "provincie": "Noord-Holland",
    "ndwID": [
      "NLZAA002360561800012"
    ]
  },
  {
    "id": "284",
    "latitude": "52.007633",
    "longitude": "4.3658223",
    "naam": "Sint-Sebastiaansbrug",
    "stad": "Delft",
    "provincie": "Zuid-Holland",
    "ndwID": [
      "NLDFT002010542300375"
    ]
  },
  {
    "id": "285",
    "latitude": "51.934151855",
    "longitude": "4.4216073188",
    "naam": "Spaansebrug",
    "stad": "Rotterdam",
    "provincie": "Zuid-Holland",
    "ndwID": [
      "NLRTM002012254700473"
    ]
  },
  {
    "id": "286",
    "latitude": "52.378191826",
    "longitude": "4.9666240487",
    "naam": "Schellingwouderbrug",
    "stad": "Amsterdam",
    "provincie": "Noord-Holland",
    "ndwID": [
      "NLAMS002330568300271"
    ]
  },
  {
    "id": "288",
    "latitude": "52.5918328626",
    "longitude": "6.0851143174",
    "naam": "N331 Hasselt",
    "stad": "Hasselt",
    "provincie": "Overijssel",
    "ndwID": [
      "NLHAS000860498700116"
    ]
  },
  {
    "id": "289",
    "latitude": "51.96373",
    "longitude": "4.3927064",
    "naam": "Kandelaarbrug",
    "stad": "Schipluiden",
    "provincie": "Zuid-Holland",
    "ndwID": [
      "NLPIJ002010543400430"
    ]
  },
  {
    "id": "290",
    "latitude": "51.92161",
    "longitude": "4.437711",
    "naam": "Beukelsbrug",
    "stad": "Rotterdam",
    "provincie": "Zuid-Holland",
    "ndwID": [
      "n",
      "NLRTM002010545000491"
    ]
  },
  {
    "id": "291",
    "latitude": "52.6922429471",
    "longitude": "6.0748617059",
    "naam": "Blauwe hand",
    "stad": "Wanneperveen",
    "provincie": "Overijssel",
    "ndwID": [
      "NLZWS000890315200039"
    ]
  },
  {
    "id": "292",
    "latitude": "52.663303",
    "longitude": "6.1006823",
    "naam": "Beukerssluis",
    "stad": "Wanneperveen",
    "provincie": "Overijssel",
    "ndwID": [
      "NLZWS000890315000001"
    ]
  },
  {
    "id": "294",
    "latitude": "52.43161",
    "longitude": "4.7185903",
    "naam": "Buitenhuizerbrug",
    "stad": "Velsen",
    "provincie": "Noord-Holland",
    "ndwID": [
      "NLSPD002020468300003"
    ]
  },
  {
    "id": "295",
    "latitude": "51.904022",
    "longitude": "4.5428333",
    "naam": "Van Brienenoordbrug",
    "stad": "Rotterdam",
    "provincie": "Zuid-Holland",
    "ndwID": [
      "NLRTM001020374200058"
    ]
  },
  {
    "id": "296",
    "latitude": "51.908978",
    "longitude": "4.4943843",
    "naam": "Spoorweghavenbrug",
    "stad": "Rotterdam",
    "provincie": "Zuid-Holland",
    "ndwID": [
      "n"
    ]
  },
  {
    "id": "297",
    "latitude": "52.772907",
    "longitude": "6.086365",
    "naam": "Heerenbrug",
    "stad": "Giethoorn",
    "provincie": "Overijssel",
    "ndwID": [
      "n"
    ]
  },
  {
    "id": "298",
    "latitude": "52.201344",
    "longitude": "4.423953",
    "naam": "Nieuwe Roversbrug",
    "stad": "Katwijk aan den Rijn",
    "provincie": "Zuid-Holland",
    "ndwID": [
      "n"
    ]
  },
  {
    "id": "299",
    "latitude": "52.58293",
    "longitude": "5.8590817",
    "naam": "Eilandbrug",
    "stad": "Kampen",
    "provincie": "Overijssel",
    "ndwID": [
      "NLKAM000844351501128"
    ]
  },
  {
    "id": "300",
    "latitude": "53.202816",
    "longitude": "6.609553",
    "naam": "Gideonbrug (A7)",
    "stad": "Groningen",
    "provincie": "Groningen",
    "ndwID": [
      "n"
    ]
  },
  {
    "id": "301",
    "latitude": "53.21408",
    "longitude": "6.5997066",
    "naam": "Euvelgunnerbrug (hoog)",
    "stad": "Groningen",
    "provincie": "Groningen",
    "ndwID": [
      "n"
    ]
  },
  {
    "id": "302",
    "latitude": "53.16416",
    "longitude": "6.8947363",
    "naam": "Zuidbroekbrug N33",
    "stad": "Zuidbroek",
    "provincie": "Groningen",
    "ndwID": [
      "n"
    ]
  },
  {
    "id": "304",
    "latitude": "51.813538",
    "longitude": "4.707288",
    "naam": "Wantijbrug",
    "stad": "Dordrecht",
    "provincie": "Zuid-Holland",
    "ndwID": [
      "n"
    ]
  },
  {
    "id": "305",
    "latitude": "51.948433",
    "longitude": "4.4124327",
    "naam": "Doenbrug",
    "stad": "Rotterdam",
    "provincie": "Zuid-Holland",
    "ndwID": [
      "n"
    ]
  },
  {
    "id": "306",
    "latitude": "52.502674",
    "longitude": "6.2599216",
    "naam": "Blauwe brug",
    "stad": "Dalfsen",
    "provincie": "Overijssel",
    "ndwID": [
      "n"
    ]
  },
  {
    "id": "307",
    "latitude": "52.220005",
    "longitude": "4.6417985",
    "naam": "Brug Oude Wetering ",
    "stad": "Oude Wetering ",
    "provincie": "Zuid-Holland",
    "ndwID": [
      "n"
    ]
  },
  {
    "id": "308",
    "latitude": "52.949535",
    "longitude": "4.7817907",
    "naam": "Burgemeester Visserbrug",
    "stad": "Den Helder",
    "provincie": "Noord-Holland",
    "ndwID": [
      "n"
    ]
  },
  {
    "id": "309",
    "latitude": "52.2449830668",
    "longitude": "6.1681479472",
    "naam": "Prins Bernhardbrug West",
    "stad": "Deventer",
    "provincie": "Overijssel",
    "ndwID": [
      "NLDEV0084B0373600003"
    ]
  },
  {
    "id": "310",
    "latitude": "52.24473",
    "longitude": "6.1700783",
    "naam": "Prins Bernhardbrug Oost",
    "stad": "Deventer",
    "provincie": "Overijssel",
    "ndwID": [
      "NLDEV0084B0373800004"
    ]
  },
  {
    "id": "311",
    "latitude": "52.244217",
    "longitude": "6.1742992",
    "naam": "Brug Hanzeweg",
    "stad": "Deventer",
    "provincie": "Overijssel",
    "ndwID": [
      "NLDEV0084B0374000007"
    ]
  },
  {
    "id": "312",
    "latitude": "51.644394",
    "longitude": "4.8397784",
    "naam": "Wilhelminabrug",
    "stad": "Oosterhout",
    "provincie": "Noord-Brabant",
    "ndwID": [
      "NLOOS001242255100081"
    ]
  },
  {
    "id": "313",
    "latitude": "51.695362",
    "longitude": "4.8302836",
    "naam": "Amertakbrug",
    "stad": "Geertruidenberg",
    "provincie": "Noord-Brabant",
    "ndwID": [
      "NLDRM001240582400018"
    ]
  },
  {
    "id": "314",
    "latitude": "51.793674",
    "longitude": "5.0490384",
    "naam": "Wilhelminasluis",
    "stad": "Giessen",
    "provincie": "Noord-Brabant",
    "ndwID": [
      "n"
    ]
  },
  {
    "id": "315",
    "latitude": "51.798317",
    "longitude": "5.3572054",
    "naam": "Sluis Sint Andries",
    "stad": "Heerewaarden",
    "provincie": "Gelderland",
    "ndwID": [
      "NLHRW0101A0552600013"
    ]
  },
  {
    "id": "316",
    "latitude": "51.648235",
    "longitude": "4.83332",
    "naam": "Vrachelsebrug",
    "stad": "Oosterhout",
    "provincie": "Noord-Brabant",
    "ndwID": [
      "NLOOS001250430400005"
    ]
  },
  {
    "id": "317",
    "latitude": "51.53983",
    "longitude": "5.630789",
    "naam": "Donksebrug",
    "stad": "Beek en Donk",
    "provincie": "Noord-Brabant",
    "ndwID": [
      "NLBEE001210400800926"
    ]
  },
  {
    "id": "318",
    "latitude": "51.52944",
    "longitude": "5.6421776",
    "naam": "Beeksebrug",
    "stad": "Beek en Donk",
    "provincie": "Noord-Brabant",
    "ndwID": [
      "NLBEE001210401000912"
    ]
  },
  {
    "id": "319",
    "latitude": "51.51866",
    "longitude": "5.64024",
    "naam": "Brug Oranjelaan",
    "stad": "Beek en Donk",
    "provincie": "Noord-Brabant",
    "ndwID": [
      "NLARI001240586300710"
    ]
  },
  {
    "id": "320",
    "latitude": "51.26139",
    "longitude": "5.714222",
    "naam": "Biesterbrug",
    "stad": "Weert",
    "provincie": "Limburg",
    "ndwID": [
      "n"
    ]
  },
  {
    "id": "321",
    "latitude": "51.563305",
    "longitude": "5.1083713",
    "naam": "Brug Bosscheweg",
    "stad": "Tilburg",
    "provincie": "Noord-Brabant",
    "ndwID": [
      "NLTLB001240583400298"
    ]
  },
  {
    "id": "322",
    "latitude": "51.5788698172",
    "longitude": "5.0641265791",
    "naam": "Brug Kraaivenstraat",
    "stad": "Tilburg",
    "provincie": "Noord-Brabant",
    "ndwID": [
      "NLTLB001242255300259"
    ]
  },
  {
    "id": "323",
    "latitude": "51.257786",
    "longitude": "5.70371",
    "naam": "Stadsbrug",
    "stad": "Weert",
    "provincie": "Noord-Brabant",
    "ndwID": [
      "n"
    ]
  },
  {
    "id": "324",
    "latitude": "51.505257",
    "longitude": "5.492331",
    "naam": "Hefbrug Son",
    "stad": "Son",
    "provincie": "Noord-Brabant",
    "ndwID": [
      "NLSON001240585500606"
    ]
  },
  {
    "id": "325",
    "latitude": "52.810837",
    "longitude": "4.7404513",
    "naam": "De Twee Zwanen Brug",
    "stad": "Schagen",
    "provincie": "Noord-Holland",
    "ndwID": [
      "NLSBU002440513400002"
    ]
  },
  {
    "id": "326",
    "latitude": "52.8865100888",
    "longitude": "4.8737263205",
    "naam": "Balgzandbrug",
    "stad": "Anna Paulowna",
    "provincie": "Noord-Holland",
    "ndwID": [
      "NLANP002450515300061"
    ]
  },
  {
    "id": "327",
    "latitude": "52.166744",
    "longitude": "4.639205",
    "naam": "Woubrugsebrug",
    "stad": "Woubrugge",
    "provincie": "Zuid-Holland",
    "ndwID": [
      "NLAPN002120534200346"
    ]
  },
  {
    "id": "328",
    "latitude": "52.0258620128157",
    "longitude": "4.66643750667572",
    "naam": "Amaliabrug",
    "stad": "Waddinxveen",
    "provincie": "Zuid-Holland",
    "ndwID": [
      "NLGOU002700862600107"
    ]
  },
  {
    "id": "329",
    "latitude": "52.1429652381",
    "longitude": "4.6472029202",
    "naam": "Molenaarsbrug",
    "stad": "Alphen aan den Rijn",
    "provincie": "Zuid-Holland",
    "ndwID": [
      "NLAPN002122253200371"
    ]
  },
  {
    "id": "330",
    "latitude": "52.146435",
    "longitude": "4.46605",
    "naam": "Hoflandbrug",
    "stad": "Voorschoten",
    "provincie": "Zuid-Holland",
    "ndwID": [
      "NLLID002050419500015",
      "NLLID002050419600015",
      "NLLID002050419700015"
    ]
  },
  {
    "id": "331",
    "latitude": "52.144737",
    "longitude": "4.4994774",
    "naam": "Kanaalbrug",
    "stad": "Leiden",
    "provincie": "Zuid-Holland",
    "ndwID": [
      "NLLID002010538300164"
    ]
  },
  {
    "id": "332",
    "latitude": "52.234043",
    "longitude": "4.8362527",
    "naam": "Busbrug",
    "stad": "Uithoorn",
    "provincie": "Utrecht",
    "ndwID": [
      "n"
    ]
  },
  {
    "id": "333",
    "latitude": "52.55704",
    "longitude": "4.7819376",
    "naam": "Kogerpolderbrug",
    "stad": "Starnmeer",
    "provincie": "Noord-Holland",
    "ndwID": [
      "n"
    ]
  },
  {
    "id": "334",
    "latitude": "52.160904",
    "longitude": "4.562611",
    "naam": "Doesmolenbrug",
    "stad": "Hoogmade",
    "provincie": "Zuid-Holland",
    "ndwID": [
      "n"
    ]
  },
  {
    "id": "335",
    "latitude": "53.311447",
    "longitude": "6.884166",
    "naam": "Eelwerderbrug",
    "stad": "Appingedam",
    "provincie": "Groningen",
    "ndwID": [
      "NLFAR000600353300047"
    ]
  },
  {
    "id": "337",
    "latitude": "52.462937816",
    "longitude": "4.8125559124",
    "naam": "Coenbrug",
    "stad": "Koog aan de Zaan",
    "provincie": "Noord-Holland",
    "ndwID": [
      "NLKGZ002360564300056"
    ]
  },
  {
    "id": "339",
    "latitude": "51.99196",
    "longitude": "4.3707724",
    "naam": "Kruithuisbrug",
    "stad": "Delft",
    "provincie": "Zuid-Holland",
    "ndwID": [
      "NLDFT002010543100397"
    ]
  },
  {
    "id": "340",
    "latitude": "52.912934812",
    "longitude": "4.7950742461",
    "naam": "Kooybrug",
    "stad": "Den Helder",
    "provincie": "Noord-Holland",
    "ndwID": [
      "NLDHR002340561500755"
    ]
  },
  {
    "id": "341",
    "latitude": "51.718784",
    "longitude": "4.4027066",
    "naam": "Haringvlietbrug",
    "stad": "Numansdorp",
    "provincie": "Zuid-Holland",
    "ndwID": [
      "n"
    ]
  },
  {
    "id": "342",
    "latitude": "52.168793",
    "longitude": "4.44547",
    "naam": "Torenvlietbrug",
    "stad": "Oegstgeest",
    "provincie": "Zuid-Holland",
    "ndwID": [
      "n"
    ]
  },
  {
    "id": "343",
    "latitude": "51.866726",
    "longitude": "4.307421",
    "naam": "Hartelbrug",
    "stad": "Spijkenisse",
    "provincie": "Zuid-Holland",
    "ndwID": [
      "n"
    ]
  },
  {
    "id": "344",
    "latitude": "52.6357820696",
    "longitude": "4.7473436594",
    "naam": "Tesselsebrug",
    "stad": "Alkmaar",
    "provincie": "Noord-Holland",
    "ndwID": [
      "NLALK002340558600412"
    ]
  },
  {
    "id": "345",
    "latitude": "52.43301",
    "longitude": "4.9959836",
    "naam": "Hefbrug Broek in Waterland",
    "stad": "Broek in Waterland",
    "provincie": "Noord-Holland",
    "ndwID": [
      "n"
    ]
  },
  {
    "id": "346",
    "latitude": "52.4201314659",
    "longitude": "4.6934160788",
    "naam": "Spaarndam (A9)",
    "stad": "Spaarndam",
    "provincie": "Noord-Holland",
    "ndwID": [
      "NLSPD002020468600025"
    ]
  },
  {
    "id": "347",
    "latitude": "52.992867",
    "longitude": "6.492266",
    "naam": "Norgerbrug",
    "stad": "Bovensmilde",
    "provincie": "Groningen",
    "ndwID": [
      "n",
      "NLBVI000750588100027"
    ]
  },
  {
    "id": "348",
    "latitude": "52.231403",
    "longitude": "4.8310204",
    "naam": "Prinses Irenebrug",
    "stad": "Uithoorn",
    "provincie": "Noord-Holland",
    "ndwID": [
      "n"
    ]
  },
  {
    "id": "349",
    "latitude": "52.22875",
    "longitude": "4.784171",
    "naam": "Vrouwenakkers brug",
    "stad": "De Kwakel",
    "provincie": "Noord-Holland",
    "ndwID": [
      "n"
    ]
  },
  {
    "id": "350",
    "latitude": "52.46459",
    "longitude": "4.7651744",
    "naam": "brug vrouwenverdriet",
    "stad": "Vrouwenverdriet",
    "provincie": "Noord-Holland",
    "ndwID": [
      "n"
    ]
  },
  {
    "id": "351",
    "latitude": "52.440202067",
    "longitude": "4.8249163786",
    "naam": "Gedempte Gracht",
    "stad": "Zaandam",
    "provincie": "Noord-Holland",
    "ndwID": [
      "NLZAA002360562400027"
    ]
  },
  {
    "id": "352",
    "latitude": "52.432568",
    "longitude": "4.7512307",
    "naam": "Nauernasebrug",
    "stad": "Westzaan",
    "provincie": "Noord-Holland",
    "ndwID": [
      "n"
    ]
  },
  {
    "id": "353",
    "latitude": "52.474747",
    "longitude": "4.769332",
    "naam": "Reint Laan Juniorbrug",
    "stad": "Assendelft",
    "provincie": "Noord-Holland",
    "ndwID": [
      "n"
    ]
  },
  {
    "id": "354",
    "latitude": "52.792404",
    "longitude": "4.9137573",
    "naam": "Waardbrug",
    "stad": "Kolhorn",
    "provincie": "Noord-Holland",
    "ndwID": [
      "NLANP002450516300181"
    ]
  },
  {
    "id": "355",
    "latitude": "53.1616",
    "longitude": "7.0235467",
    "naam": "Kloosterbrug",
    "stad": "Winschoten",
    "provincie": "Groningen",
    "ndwID": [
      "NLWSC000130334400319"
    ]
  },
  {
    "id": "356",
    "latitude": "52.535107",
    "longitude": "6.074066",
    "naam": "Mastenbroekerbrug",
    "stad": "Zwolle",
    "provincie": "Overijssel",
    "ndwID": [
      "NLZWO000860498400042"
    ]
  },
  {
    "id": "357",
    "latitude": "52.52693",
    "longitude": "6.0711317",
    "naam": "Twistvlietbrug",
    "stad": "Zwolle",
    "provincie": "Overijssel",
    "ndwID": [
      "NLZWO000864362900031"
    ]
  },
  {
    "id": "358",
    "latitude": "52.6165371506",
    "longitude": "4.7680556774",
    "naam": "Leeghwaterbrug",
    "stad": "Alkmaar",
    "provincie": "Noord-Holland",
    "ndwID": [
      "NLALK002340557700383"
    ]
  },
  {
    "id": "359",
    "latitude": "52.351105",
    "longitude": "4.7675905",
    "naam": "Lijnderbrug",
    "stad": "Lijnden",
    "provincie": "Noord-Holland",
    "ndwID": [
      "n"
    ]
  },
  {
    "id": "362",
    "latitude": "52.4550565667",
    "longitude": "4.8126657494",
    "naam": "Spoorbrug",
    "stad": "Zaandam",
    "provincie": "Noord-Holland",
    "ndwID": [
      "NLZAA002360563100047"
    ]
  },
  {
    "id": "363",
    "latitude": "52.337191492",
    "longitude": "4.8470117032",
    "naam": "Schinkelbrug",
    "stad": "Amsterdam",
    "provincie": "Noord-Holland",
    "ndwID": [
      "NLAMS002122253000074"
    ]
  },
  {
    "id": "364",
    "latitude": "53.032654",
    "longitude": "5.6668816",
    "naam": "Oppenhuizerbrug",
    "stad": "Sneek",
    "provincie": "Friesland",
    "ndwID": [
      "n"
    ]
  },
  {
    "id": "365",
    "latitude": "53.010654",
    "longitude": "5.621895",
    "naam": "Galamgrachtbrug",
    "stad": "Ijlst",
    "provincie": "Friesland",
    "ndwID": [
      "n"
    ]
  },
  {
    "id": "366",
    "latitude": "53.029095",
    "longitude": "5.6590867",
    "naam": "Lemmerbrug",
    "stad": "Sneek",
    "provincie": "Friesland",
    "ndwID": [
      "n"
    ]
  },
  {
    "id": "367",
    "latitude": "52.059464",
    "longitude": "4.3442636",
    "naam": "Geestbrug",
    "stad": "Rijswijk",
    "provincie": "Zuid-Holland",
    "ndwID": [
      "NLVOB0201L0464400004"
    ]
  },
  {
    "id": "368",
    "latitude": "53.167027",
    "longitude": "6.8087664",
    "naam": "Noordbroeksterbrug",
    "stad": "Sappemeer",
    "provincie": "Groningen",
    "ndwID": [
      "NLSAP000130333400167"
    ]
  },
  {
    "id": "557",
    "latitude": "52.37108",
    "longitude": "4.9128013",
    "naam": "Kortjewantsbrug",
    "stad": "Amsterdam",
    "provincie": "Noord-Holland",
    "ndwID": [
      "n"
    ]
  },
  {
    "id": "558",
    "latitude": "52.369164",
    "longitude": "4.9098234",
    "naam": "Latjesbrug (Brug 50)",
    "stad": "Amsterdam",
    "provincie": "Noord-Holland",
    "ndwID": [
      "n"
    ]
  },
  {
    "id": "559",
    "latitude": "52.367397",
    "longitude": "4.9071035",
    "naam": "Hortusbrug",
    "stad": "Amsterdam",
    "provincie": "Noord-Holland",
    "ndwID": [
      "n"
    ]
  },
  {
    "id": "560",
    "latitude": "52.33694",
    "longitude": "4.943585",
    "naam": "Duivendrechtsebrug",
    "stad": "Amsterdam",
    "provincie": "Noord-Holland",
    "ndwID": [
      "n"
    ]
  },
  {
    "id": "561",
    "latitude": "52.366478",
    "longitude": "4.904806",
    "naam": "Vaz Diasbrug",
    "stad": "Amsterdam",
    "provincie": "Noord-Holland",
    "ndwID": [
      "n",
      "NLAMS002200480100018"
    ]
  },
  {
    "id": "562",
    "latitude": "52.342484",
    "longitude": "4.9188457",
    "naam": "Omvalbrug",
    "stad": "Amsterdam",
    "provincie": "Noord-Holland",
    "ndwID": [
      "n"
    ]
  },
  {
    "id": "563",
    "latitude": "52.360367",
    "longitude": "4.9040036",
    "naam": "De Hogesluis",
    "stad": "Amsterdam",
    "provincie": "Noord-Holland",
    "ndwID": [
      "n"
    ]
  },
  {
    "id": "564",
    "latitude": "52.35616",
    "longitude": "4.9060144",
    "naam": "Nieuwe Amstelbrug",
    "stad": "Amsterdam",
    "provincie": "Noord-Holland",
    "ndwID": [
      "n"
    ]
  },
  {
    "id": "565",
    "latitude": "53.212776",
    "longitude": "6.558645",
    "naam": "Eelderbrug",
    "stad": "Groningen",
    "provincie": "Groningen",
    "ndwID": [
      "n"
    ]
  },
  {
    "id": "566",
    "latitude": "53.217068",
    "longitude": "6.5801024",
    "naam": "Oosterhavenbrug",
    "stad": "Groningen",
    "provincie": "Groningen",
    "ndwID": [
      "n"
    ]
  },
  {
    "id": "567",
    "latitude": "52.51219",
    "longitude": "4.946288",
    "naam": "Beemsterbrug",
    "stad": "Purmerend",
    "provincie": "Noord-Holland",
    "ndwID": [
      "NLPUM002410384900295",
      "NLPUM002410385100295"
    ]
  },
  {
    "id": "568",
    "latitude": "52.496532",
    "longitude": "4.9471397",
    "naam": "Jan Blankenbrug",
    "stad": "Purmerend",
    "provincie": "Noord-Holland",
    "ndwID": [
      "n"
    ]
  },
  {
    "id": "569",
    "latitude": "52.505104",
    "longitude": "4.9651403",
    "naam": "Wheermolenbrug",
    "stad": "Purmerend",
    "provincie": "Noord-Holland",
    "ndwID": [
      "n"
    ]
  },
  {
    "id": "570",
    "latitude": "52.80477",
    "longitude": "4.766134",
    "naam": "Zijperbrug",
    "stad": "Schagerbrug",
    "provincie": "Noord-Holland",
    "ndwID": [
      "NLSBU002440513700021"
    ]
  },
  {
    "id": "571",
    "latitude": "53.177986",
    "longitude": "7.1969867",
    "naam": "Westerwoldse Aa-brug (A7)",
    "stad": "Nieuweschans",
    "provincie": "Groningen",
    "ndwID": [
      "n"
    ]
  },
  {
    "id": "572",
    "latitude": "52.55969",
    "longitude": "5.919018",
    "naam": "Stadsbrug",
    "stad": "Kampen",
    "provincie": "Overijssel",
    "ndwID": [
      "NLKAM000840437101079"
    ]
  },
  {
    "id": "573",
    "latitude": "51.93672",
    "longitude": "4.4117565",
    "naam": "Oost-Abtsbrug",
    "stad": "Rotterdam",
    "provincie": "Zuid-Holland",
    "ndwID": [
      "n"
    ]
  },
  {
    "id": "575",
    "latitude": "52.298595",
    "longitude": "4.8992105",
    "naam": "Brug Oranjebaan",
    "stad": "Amstelveen",
    "provincie": "Noord-Holland",
    "ndwID": [
      "n"
    ]
  },
  {
    "id": "576",
    "latitude": "52.45628",
    "longitude": "5.0308557",
    "naam": "Hefbrug Monnickendam",
    "stad": "Monnickendam",
    "provincie": "Noord-Holland",
    "ndwID": [
      "n"
    ]
  },
  {
    "id": "577",
    "latitude": "52.377506",
    "longitude": "4.9106917",
    "naam": "Oosterdokbrug",
    "stad": "Amsterdam",
    "provincie": "Noord-Holland",
    "ndwID": [
      "n"
    ]
  },
  {
    "id": "578",
    "latitude": "52.399094",
    "longitude": "4.921493",
    "naam": "Buiksloterdraaibrug",
    "stad": "Amsterdam",
    "provincie": "Noord-Holland",
    "ndwID": [
      "n"
    ]
  },
  {
    "id": "579",
    "latitude": "52.40482",
    "longitude": "4.925024",
    "naam": "IJdoornlaanbrug",
    "stad": "Amsterdam",
    "provincie": "Noord-Holland",
    "ndwID": [
      "n"
    ]
  },
  {
    "id": "580",
    "latitude": "52.389687",
    "longitude": "4.91814",
    "naam": "Meeuwenpleinbrug",
    "stad": "Amsterdam",
    "provincie": "Noord-Holland",
    "ndwID": [
      "n",
      "NLAMS002340555900015",
      "NLAMS002340556000015"
    ]
  },
  {
    "id": "581",
    "latitude": "52.493923",
    "longitude": "4.7727947",
    "naam": "Krommeniebrug",
    "stad": "Krommenie",
    "provincie": "Noord-Holland",
    "ndwID": [
      "n"
    ]
  },
  {
    "id": "582",
    "latitude": "52.29149",
    "longitude": "5.0737467",
    "naam": "Vechtbrug",
    "stad": "Uitermeer",
    "provincie": "Noord-Holland",
    "ndwID": [
      "n"
    ]
  },
  {
    "id": "583",
    "latitude": "52.056633",
    "longitude": "4.348279",
    "naam": "Nieuwe Tolbrug",
    "stad": "Den Haag",
    "provincie": "Zuid-Holland",
    "ndwID": [
      "NLVOB002010540800310"
    ]
  },
  {
    "id": "584",
    "latitude": "53.320522",
    "longitude": "6.9406023",
    "naam": "Zeesluis",
    "stad": "Delfzijl",
    "provincie": "Groningen",
    "ndwID": [
      "n"
    ]
  },
  {
    "id": "585",
    "latitude": "52.15948",
    "longitude": "4.4507003",
    "naam": "Haagse Schouwbrug",
    "stad": "Leiden",
    "provincie": "Zuid-Holland",
    "ndwID": [
      "NLLID002050421000033"
    ]
  },
  {
    "id": "586",
    "latitude": "51.469284",
    "longitude": "4.006035",
    "naam": "Vlakebrug",
    "stad": "Hansweert",
    "provincie": "Zeeland",
    "ndwID": [
      "NLHAN001370519800070"
    ]
  },
  {
    "id": "588",
    "latitude": "52.953754",
    "longitude": "4.777927",
    "naam": "Van Kinsbergenbrug",
    "stad": "Den Helder",
    "provincie": "Noord-Holland",
    "ndwID": [
      "NLDHR0234C0384300006"
    ]
  },
  {
    "id": "589",
    "latitude": "53.19665",
    "longitude": "6.622095",
    "naam": "Duinkerkenbrug",
    "stad": "Groningen",
    "provincie": "Groningen",
    "ndwID": [
      "NLGRQ000130331900034"
    ]
  },
  {
    "id": "590",
    "latitude": "53.212498",
    "longitude": "6.5618744",
    "naam": "Emmabrug",
    "stad": "Groningen",
    "provincie": "Groningen",
    "ndwID": [
      "n"
    ]
  },
  {
    "id": "591",
    "latitude": "53.232334",
    "longitude": "6.6347365",
    "naam": "Borgbrug",
    "stad": "Groningen",
    "provincie": "Groningen",
    "ndwID": [
      "NLGWO000600352700237"
    ]
  },
  {
    "id": "592",
    "latitude": "53.249058",
    "longitude": "6.3130717",
    "naam": "Brug Gaarkeukensluis",
    "stad": "Grijpskerk",
    "provincie": "Groningen",
    "ndwID": [
      "NLGKN000600504400471"
    ]
  },
  {
    "id": "593",
    "latitude": "52.9341713448",
    "longitude": "5.0421134615",
    "naam": "Stevinsluizen",
    "stad": "Den Oever",
    "provincie": "Noord-Holland",
    "ndwID": [
      "NLWRG003020404400327"
    ]
  },
  {
    "id": "594",
    "latitude": "51.29379",
    "longitude": "3.835428",
    "naam": "Brug Sluiskil - Terneuzen",
    "stad": "Sluiskil",
    "provincie": "Zeeland",
    "ndwID": [
      "n"
    ]
  },
  {
    "id": "595",
    "latitude": "53.2552467119",
    "longitude": "6.3997683759",
    "naam": "Brug Zuidhorn",
    "stad": "Zuidhorn",
    "provincie": "Groningen",
    "ndwID": [
      "NLGRQ000600504200411"
    ]
  },
  {
    "id": "596",
    "latitude": "53.31929",
    "longitude": "6.939303",
    "naam": "Zeesluis Delfzijl Zuid",
    "stad": "Farmsum",
    "provincie": "Groningen",
    "ndwID": [
      "NLFAR000600353600007"
    ]
  },
  {
    "id": "597",
    "latitude": "53.3062698",
    "longitude": "6.8546354",
    "naam": "Woldbrug",
    "stad": "Appingedam",
    "provincie": "Groningen",
    "ndwID": [
      "NLAPP000600353100068"
    ]
  },
  {
    "id": "598",
    "latitude": "51.49737",
    "longitude": "4.0045877",
    "naam": "Postbrug",
    "stad": "Yerseke",
    "provincie": "Zeeland",
    "ndwID": [
      "NLKPL001370519200038"
    ]
  },
  {
    "id": "600",
    "latitude": "51.2294121521",
    "longitude": "3.807518369",
    "naam": "Sas van Gent brug",
    "stad": "Sas van Gent",
    "provincie": "Zeeland",
    "ndwID": [
      "NLSVG001300521600186"
    ]
  },
  {
    "id": "601",
    "latitude": "53.2007025",
    "longitude": "6.0687214",
    "naam": "Skulenboarch",
    "stad": "Eastermar",
    "provincie": "Friesland",
    "ndwID": [
      "NLOME000600355000649"
    ]
  },
  {
    "id": "602",
    "latitude": "52.228107",
    "longitude": "5.033566",
    "naam": "Vreelandbrug",
    "stad": "Vreeland",
    "provincie": "Utrecht",
    "ndwID": [
      "NLVRD002270446700216"
    ]
  },
  {
    "id": "603",
    "latitude": "52.07807",
    "longitude": "5.1219754",
    "naam": "Vondelbrug",
    "stad": "Utrecht",
    "provincie": "Utrecht",
    "ndwID": [
      "n"
    ]
  },
  {
    "id": "604",
    "latitude": "53.2371586238",
    "longitude": "6.2125780846",
    "naam": "Brug Stroobos",
    "stad": "Stroobos",
    "provincie": "Friesland",
    "ndwID": [
      "NLKLM000600354200539"
    ]
  },
  {
    "id": "605",
    "latitude": "53.07378",
    "longitude": "5.335095",
    "naam": "Lorentzsluizen zuid",
    "stad": "Kornwerderzand",
    "provincie": "Friesland",
    "ndwID": [
      "NLKWZ003010403800552"
    ]
  },
  {
    "id": "607",
    "latitude": "53.1685860927",
    "longitude": "6.7430166813",
    "naam": "Zwedenwegbrug",
    "stad": "Hoogezand",
    "provincie": "Groningen",
    "ndwID": [
      "NLHZD000130332700122"
    ]
  },
  {
    "id": "608",
    "latitude": "53.177433",
    "longitude": "5.4435997",
    "naam": "Koningsbrug",
    "stad": "Harlingen",
    "provincie": "Friesland",
    "ndwID": [
      "NLHAR000220358500022"
    ]
  },
  {
    "id": "609",
    "latitude": "53.260483",
    "longitude": "6.469196",
    "naam": "Aduard Brug",
    "stad": "Aduard",
    "provincie": "Groningen",
    "ndwID": [
      "NLGRQ000601013900364"
    ]
  },
  {
    "id": "610",
    "latitude": "53.179146",
    "longitude": "6.6779003",
    "naam": "Westerbroeksterbrug",
    "stad": "Westerbroek",
    "provincie": "Groningen",
    "ndwID": [
      "NLFOX000130332300077"
    ]
  },
  {
    "id": "611",
    "latitude": "52.225697",
    "longitude": "5.313107",
    "naam": "Eembrug",
    "stad": "Baarn",
    "provincie": "Utrecht",
    "ndwID": [
      "NLEES002280429600113"
    ]
  },
  {
    "id": "612",
    "latitude": "52.06683",
    "longitude": "5.1155453",
    "naam": "Hoogravensebrug",
    "stad": "Utrecht",
    "provincie": "Utrecht",
    "ndwID": [
      "n"
    ]
  },
  {
    "id": "614",
    "latitude": "53.168026",
    "longitude": "6.7892575",
    "naam": "Slochterbrug",
    "stad": "Zuidbroek",
    "provincie": "Groningen",
    "ndwID": [
      "NLSAP000130333200154"
    ]
  },
  {
    "id": "615",
    "latitude": "52.52715",
    "longitude": "5.4341335",
    "naam": "Houtribsluizen",
    "stad": "Lelystad",
    "provincie": "Flevoland",
    "ndwID": [
      "NLLEY002300441100341"
    ]
  },
  {
    "id": "616",
    "latitude": "52.106407",
    "longitude": "5.107318",
    "naam": "Roode Brug",
    "stad": "Utrecht",
    "provincie": "Utrecht",
    "ndwID": [
      "n"
    ]
  },
  {
    "id": "617",
    "latitude": "51.91871",
    "longitude": "4.249522",
    "naam": "Koepaardbrug",
    "stad": "Maassluis",
    "provincie": "Zuid-Holland",
    "ndwID": [
      "n",
      "NLMSL0102L0318000007"
    ]
  },
  {
    "id": "618",
    "latitude": "51.922016",
    "longitude": "4.2522597",
    "naam": "Schansbrug ",
    "stad": "Maassluis",
    "provincie": "Zuid-Holland",
    "ndwID": [
      "n"
    ]
  },
  {
    "id": "619",
    "latitude": "53.40847",
    "longitude": "6.196712",
    "naam": "Brug Robbengatsluis",
    "stad": "Lauwersoog",
    "provincie": "Groningen",
    "ndwID": [
      "NLLAN000060349200508"
    ]
  },
  {
    "id": "620",
    "latitude": "53.198586",
    "longitude": "5.765815",
    "naam": "Slauerhoffbrug",
    "stad": "Leeuwarden",
    "provincie": "Friesland",
    "ndwID": [
      "NLLWR000275288400440"
    ]
  },
  {
    "id": "621",
    "latitude": "52.002285",
    "longitude": "4.693787",
    "naam": "Julianasluisbrug Noord",
    "stad": "Gouda",
    "provincie": "Zuid-Holland",
    "ndwID": [
      "NLGOU002700536400142"
    ]
  },
  {
    "id": "622",
    "latitude": "53.185314",
    "longitude": "6.6493864",
    "naam": "Waterhuizerbrug",
    "stad": "Groningen",
    "provincie": "Groningen",
    "ndwID": [
      "NLGRQ000130332100057"
    ]
  },
  {
    "id": "623",
    "latitude": "52.015915",
    "longitude": "5.0981393",
    "naam": "Wiersebrug",
    "stad": "Nieuwegein",
    "provincie": "Utrecht",
    "ndwID": [
      "NLNWG002260443400105"
    ]
  },
  {
    "id": "624",
    "latitude": "52.68422",
    "longitude": "5.946393",
    "naam": "Vollenhoverbrug",
    "stad": "Marknesse",
    "provincie": "Flevoland",
    "ndwID": [
      "NLMAN000930403600072"
    ]
  },
  {
    "id": "625",
    "latitude": "53.16211",
    "longitude": "6.862898",
    "naam": "Zuidbroeksterbrug",
    "stad": "Zuidbroek",
    "provincie": "Groningen",
    "ndwID": [
      "NLZBO000130333600204"
    ]
  },
  {
    "id": "626",
    "latitude": "53.197987",
    "longitude": "5.7877",
    "naam": "Verlaatsbrug",
    "stad": "Leeuwarden",
    "provincie": "Friesland",
    "ndwID": [
      "NLLWR000270322300426"
    ]
  },
  {
    "id": "627",
    "latitude": "52.91056",
    "longitude": "5.7000637",
    "naam": "Spannenburgerbrug",
    "stad": "Tjerkgaast",
    "provincie": "Friesland",
    "ndwID": [
      "NLLMR000600356801106"
    ]
  },
  {
    "id": "628",
    "latitude": "51.62068",
    "longitude": "3.9036014",
    "naam": "Zeelandbrug",
    "stad": "Zeeland",
    "provincie": "Zeeland",
    "ndwID": [
      "n"
    ]
  },
  {
    "id": "629",
    "latitude": "53.20253",
    "longitude": "5.78838",
    "naam": "Vrouwenpoortsbrug",
    "stad": "Leeuwarden",
    "provincie": "Friesland",
    "ndwID": [
      "NLLWR000270322100420"
    ]
  },
  {
    "id": "630",
    "latitude": "53.20629",
    "longitude": "5.7969074",
    "naam": "Noorderbrug",
    "stad": "Leeuwarden",
    "provincie": "Friesland",
    "ndwID": [
      "NLLWR000270321900411"
    ]
  },
  {
    "id": "631",
    "latitude": "53.13463",
    "longitude": "6.8978834",
    "naam": "Meedenerbrug",
    "stad": "Muntendam",
    "provincie": "Groningen",
    "ndwID": [
      "NLVDM000180311000033"
    ]
  },
  {
    "id": "632",
    "latitude": "53.2196322052",
    "longitude": "6.5971398354",
    "naam": "Sontbrug",
    "stad": "Groningen",
    "provincie": "Groningen",
    "ndwID": [
      "NLGRQ000130123300004"
    ]
  },
  {
    "id": "633",
    "latitude": "51.81111",
    "longitude": "4.6501937",
    "naam": "Stadsbrug",
    "stad": "Dordrecht",
    "provincie": "Zuid-Holland",
    "ndwID": [
      "NLZWI001110572200019"
    ]
  },
  {
    "id": "634",
    "latitude": "52.16185",
    "longitude": "4.9091964",
    "naam": "Ennipwetering",
    "stad": "Wilnis",
    "provincie": "Utrecht",
    "ndwID": [
      "n"
    ]
  },
  {
    "id": "635",
    "latitude": "51.494152",
    "longitude": "3.6134648",
    "naam": "Schroebrug",
    "stad": "Middelburg",
    "provincie": "Zeeland",
    "ndwID": [
      "NLMID001340492900081"
    ]
  },
  {
    "id": "636",
    "latitude": "51.44944",
    "longitude": "3.586001",
    "naam": "Keersluisbrug",
    "stad": "Vlissingen",
    "provincie": "Zeeland",
    "ndwID": [
      "NLVLI001340492200027"
    ]
  },
  {
    "id": "637",
    "latitude": "52.063347",
    "longitude": "4.343561",
    "naam": "Binkhorstbrug",
    "stad": "Den Haag",
    "provincie": "Zuid-Holland",
    "ndwID": [
      "NLHAG201L10464900002"
    ]
  },
  {
    "id": "638",
    "latitude": "51.661896",
    "longitude": "4.1619434",
    "naam": "Krammersluizen",
    "stad": "Bruinisse",
    "provincie": "Zeeland",
    "ndwID": [
      "NLPLP001430523200223"
    ]
  },
  {
    "id": "639",
    "latitude": "52.0419",
    "longitude": "5.0990763",
    "naam": "Blauwe Brug",
    "stad": "Nieuwegein",
    "provincie": "Utrecht",
    "ndwID": [
      "NLNWG002260442800073"
    ]
  },
  {
    "id": "640",
    "latitude": "53.21058",
    "longitude": "6.5593133",
    "naam": "Spoorbrug ",
    "stad": "Groningen",
    "provincie": "Groningen",
    "ndwID": [
      "n"
    ]
  },
  {
    "id": "641",
    "latitude": "51.68087",
    "longitude": "5.367937",
    "naam": "Dungense brug",
    "stad": "Den Bosch",
    "provincie": "Noord-Brabant",
    "ndwID": [
      "n"
    ]
  },
  {
    "id": "642",
    "latitude": "52.995556",
    "longitude": "6.511161",
    "naam": "Kloosterbrug",
    "stad": "Assen",
    "provincie": "Drenthe",
    "ndwID": [
      "n"
    ]
  },
  {
    "id": "643",
    "latitude": "52.45747",
    "longitude": "5.816819",
    "naam": "Elburgerbrug",
    "stad": "Elburg",
    "provincie": "Flevoland",
    "ndwID": [
      "NLELB002290432400606"
    ]
  },
  {
    "id": "644",
    "latitude": "52.99951",
    "longitude": "5.706113",
    "naam": "Uitwellingbrug",
    "stad": "Uitwellingerga",
    "provincie": "Friesland",
    "ndwID": [
      "n"
    ]
  },
  {
    "id": "645",
    "latitude": "53.212566",
    "longitude": "6.570221",
    "naam": "Herebrug",
    "stad": "Groningen",
    "provincie": "Groningen",
    "ndwID": [
      "n"
    ]
  },
  {
    "id": "646",
    "latitude": "53.22732",
    "longitude": "6.5353613",
    "naam": "Pleiadenbrug",
    "stad": "Groningen",
    "provincie": "Groningen",
    "ndwID": [
      "NLGRQ000060347100055"
    ]
  },
  {
    "id": "647",
    "latitude": "53.065567",
    "longitude": "5.8067007",
    "naam": "Aldskou Brug",
    "stad": "Akkrum",
    "provincie": "Friesland",
    "ndwID": [
      "NLOHW000600356200898"
    ]
  },
  {
    "id": "648",
    "latitude": "51.510006",
    "longitude": "4.174062",
    "naam": "Bergse Diepsluis",
    "stad": "Tholen",
    "provincie": "Zeeland",
    "ndwID": [
      "NLTHO001830574100025"
    ]
  },
  {
    "id": "649",
    "latitude": "51.7041123769",
    "longitude": "5.2808382825",
    "naam": "Industriehavenbrug ",
    "stad": "Den Bosch",
    "provincie": "Noord-Brabant",
    "ndwID": [
      "NLHTB008464209300004"
    ]
  },
  {
    "id": "650",
    "latitude": "52.02851",
    "longitude": "5.087807",
    "naam": "Doorslagbrug",
    "stad": "Nieuwegein",
    "provincie": "Utrecht",
    "ndwID": [
      "NLNWG0226B0476100006",
      "NLNWG0226B0476200006"
    ]
  },
  {
    "id": "651",
    "latitude": "52.165894",
    "longitude": "5.374545",
    "naam": "Koppelbrug",
    "stad": "Amersfoort",
    "provincie": "Utrecht",
    "ndwID": [
      "n"
    ]
  },
  {
    "id": "652",
    "latitude": "52.004585",
    "longitude": "4.7420363",
    "naam": "Goverwelle Brug",
    "stad": "Haastrecht",
    "provincie": "Zuid-Holland",
    "ndwID": [
      "n"
    ]
  },
  {
    "id": "653",
    "latitude": "53.17389",
    "longitude": "6.971335",
    "naam": "Eexterbrug",
    "stad": "Scheemda",
    "provincie": "Groningen",
    "ndwID": [
      "NLSMD000130334000281"
    ]
  },
  {
    "id": "654",
    "latitude": "52.61253",
    "longitude": "5.6454625",
    "naam": "Ketelbrug",
    "stad": "Swifterbant",
    "provincie": "Flevoland",
    "ndwID": [
      "NLSWI000842251301280"
    ]
  },
  {
    "id": "655",
    "latitude": "51.469513",
    "longitude": "5.6680174",
    "naam": "Industriehaven ",
    "stad": "Helmond",
    "provincie": "Noord-Brabant",
    "ndwID": [
      "NLHLM008520403200006"
    ]
  },
  {
    "id": "656",
    "latitude": "53.164806",
    "longitude": "6.996907",
    "naam": "Graaf Adolfbrug",
    "stad": "Scheemda",
    "provincie": "Groningen",
    "ndwID": [
      "NLSMD000130334200301"
    ]
  },
  {
    "id": "657",
    "latitude": "51.457882",
    "longitude": "3.5904176",
    "naam": "Brug N288",
    "stad": "Vlissingen",
    "provincie": "Zeeland",
    "ndwID": [
      "n"
    ]
  },
  {
    "id": "658",
    "latitude": "51.95153",
    "longitude": "6.286917",
    "naam": "Wijnbergsebrug",
    "stad": "Doetinchem",
    "provincie": "Gelderland",
    "ndwID": [
      "n"
    ]
  },
  {
    "id": "659",
    "latitude": "52.61353",
    "longitude": "5.8412933",
    "naam": "Ramspolbrug",
    "stad": "Ens",
    "provincie": "Flevoland",
    "ndwID": [
      "NLRPL000860499000346"
    ]
  },
  {
    "id": "660",
    "latitude": "52.847206",
    "longitude": "6.342123",
    "naam": "Dieversluis",
    "stad": "Dieverbrug",
    "provincie": "Drenthe",
    "ndwID": [
      "n"
    ]
  },
  {
    "id": "661",
    "latitude": "52.261868",
    "longitude": "5.4712615",
    "naam": "Nijkerkersluis",
    "stad": "Nijkerk",
    "provincie": "Gelderland",
    "ndwID": [
      "NLNKK002290431800258"
    ]
  },
  {
    "id": "662",
    "latitude": "51.817017",
    "longitude": "4.688188",
    "naam": "Prins Hendrikbrug",
    "stad": "Dordrecht",
    "provincie": "Zuid-Holland",
    "ndwID": [
      "n"
    ]
  },
  {
    "id": "663",
    "latitude": "52.760086",
    "longitude": "6.232784",
    "naam": "Boschkampbrug",
    "stad": "Havelte",
    "provincie": "Drenthe",
    "ndwID": [
      "n"
    ]
  },
  {
    "id": "664",
    "latitude": "51.466038",
    "longitude": "5.6625404",
    "naam": "Sluis Helmond",
    "stad": "Helmond",
    "provincie": "Noord-Brabant",
    "ndwID": [
      "NLHLM0121A0403000033"
    ]
  },
  {
    "id": "665",
    "latitude": "51.99685",
    "longitude": "4.6946993",
    "naam": "Gouderaksebrug",
    "stad": "Gouderak",
    "provincie": "Zuid-Holland",
    "ndwID": [
      "n"
    ]
  },
  {
    "id": "666",
    "latitude": "52.06849",
    "longitude": "4.332457",
    "naam": "Trekvlietbrug",
    "stad": "Den Haag",
    "provincie": "Zuid-Holland",
    "ndwID": [
      "NLHAG0201L0464600017"
    ]
  },
  {
    "id": "667",
    "latitude": "53.20734",
    "longitude": "6.097163",
    "naam": "Brug Kootstertille",
    "stad": "Drogeham",
    "provincie": "Friesland",
    "ndwID": [
      "n"
    ]
  },
  {
    "id": "668",
    "latitude": "53.23359",
    "longitude": "6.584265",
    "naam": "Busbaanbrug",
    "stad": "Groningen",
    "provincie": "Groningen",
    "ndwID": [
      "n"
    ]
  },
  {
    "id": "669",
    "latitude": "51.91705",
    "longitude": "4.5785007",
    "naam": "Algerabrug",
    "stad": "Krimpen aan den IJssel",
    "provincie": "Zuid-Holland",
    "ndwID": [
      "NLCPI0211D0518200003"
    ]
  },
  {
    "id": "670",
    "latitude": "52.220844",
    "longitude": "4.9716816",
    "naam": "Demmerikse Brug",
    "stad": "Vinkeveen",
    "provincie": "Utrecht",
    "ndwID": [
      "n"
    ]
  },
  {
    "id": "671",
    "latitude": "52.1556",
    "longitude": "4.470584",
    "naam": "Churchillbrug",
    "stad": "Leiden",
    "provincie": "Zuid-Holland",
    "ndwID": [
      "n"
    ]
  },
  {
    "id": "672",
    "latitude": "52.160164",
    "longitude": "4.477293",
    "naam": "Rijnzichtbrug",
    "stad": "Leiden",
    "provincie": "Zuid-Holland",
    "ndwID": [
      "n"
    ]
  },
  {
    "id": "673",
    "latitude": "52.51105",
    "longitude": "5.044106",
    "naam": "Brug Edam",
    "stad": "Edam",
    "provincie": "Noord-Holland",
    "ndwID": [
      "n"
    ]
  },
  {
    "id": "674",
    "latitude": "52.00672",
    "longitude": "4.7208815",
    "naam": "Haastrechtsebrug",
    "stad": "Gouda",
    "provincie": "Zuid-Holland",
    "ndwID": [
      "n"
    ]
  },
  {
    "id": "675",
    "latitude": "52.06757",
    "longitude": "4.3283405",
    "naam": "Laakbrug",
    "stad": "Den Haag",
    "provincie": "Zuid-Holland",
    "ndwID": [
      "n"
    ]
  },
  {
    "id": "676",
    "latitude": "51.96758",
    "longitude": "6.2716603",
    "naam": "Energiebrug",
    "stad": "Doetinchem",
    "provincie": "Gelderland",
    "ndwID": [
      "n"
    ]
  },
  {
    "id": "677",
    "latitude": "51.965206",
    "longitude": "6.2840953",
    "naam": "Europabrug",
    "stad": "Doetinchem",
    "provincie": "Gelderland",
    "ndwID": [
      "n"
    ]
  },
  {
    "id": "678",
    "latitude": "53.227997",
    "longitude": "6.1732273",
    "naam": "Brub N358",
    "stad": "Blauwverlaat",
    "provincie": "Friesland",
    "ndwID": [
      "n"
    ]
  },
  {
    "id": "679",
    "latitude": "53.214817",
    "longitude": "6.513027",
    "naam": "Jan Altinkbrug",
    "stad": "Groningen",
    "provincie": "Groningen",
    "ndwID": [
      "n"
    ]
  },
  {
    "id": "680",
    "latitude": "52.813103",
    "longitude": "4.9880033",
    "naam": "Schagerbrug",
    "stad": "Middenmeer",
    "provincie": "Noord-Holland",
    "ndwID": [
      "n"
    ]
  },
  {
    "id": "681",
    "latitude": "50.862125",
    "longitude": "5.687477",
    "naam": "Sluis 19",
    "stad": "Maasstricht",
    "provincie": "Limburg",
    "ndwID": [
      "n"
    ]
  },
  {
    "id": "682",
    "latitude": "53.258778",
    "longitude": "6.50182",
    "naam": "Tafelbrug",
    "stad": "Dorkwerd",
    "provincie": "Groningen",
    "ndwID": [
      "NLGRQ000600503800343"
    ]
  },
  {
    "id": "684",
    "latitude": "51.901978",
    "longitude": "4.2113633",
    "naam": "Harmsenbrug",
    "stad": "Europoort Rotterdam",
    "provincie": "Zuid-Holland",
    "ndwID": [
      "n"
    ]
  },
  {
    "id": "686",
    "latitude": "53.236084",
    "longitude": "6.5782948",
    "naam": "Gerrit Krolbrug",
    "stad": "Groningen",
    "provincie": "Groningen",
    "ndwID": [
      "n"
    ]
  },
  {
    "id": "688",
    "latitude": "52.638245",
    "longitude": "4.7463837",
    "naam": "Victoriebrug",
    "stad": "Alkmaar",
    "provincie": "Noord-Holland",
    "ndwID": [
      "NLALK002346696900415"
    ]
  },
  {
    "id": "690",
    "latitude": "51.918365",
    "longitude": "4.24917",
    "naam": "Keersluis ",
    "stad": "Maassluis",
    "provincie": "Zuid-Holland",
    "ndwID": [
      "n"
    ]
  },
  {
    "id": "691",
    "latitude": "53.2276455",
    "longitude": "6.5917772",
    "naam": "Nieuwe Oostersluis",
    "stad": "Groningen",
    "provincie": "Groningen",
    "ndwID": [
      "NLGRQ000600502900272"
    ]
  },
  {
    "id": "692",
    "latitude": "51.91764",
    "longitude": "4.2483306",
    "naam": "Coppelbrug",
    "stad": "Maassluis",
    "provincie": "Zuid-Holland",
    "ndwID": [
      "n"
    ]
  },
  {
    "id": "693",
    "latitude": "53.07885",
    "longitude": "5.828011",
    "naam": "Spoorbrug Grou",
    "stad": "Grou",
    "provincie": "Friesland",
    "ndwID": [
      "n"
    ]
  },
  {
    "id": "694",
    "latitude": "53.24199",
    "longitude": "6.2484193",
    "naam": "Brug Eibersburen",
    "stad": "Lutjegast",
    "provincie": "Groningen",
    "ndwID": [
      "n"
    ]
  },
  {
    "id": "700",
    "latitude": "52.0439003385456",
    "longitude": "4.65972901453642",
    "naam": "Waddinxveense hefbrug",
    "stad": "Waddinxveen",
    "provincie": "Zuid-Holland",
    "ndwID": []
  },
  {
    "id": "702",
    "latitude": "53.2771847",
    "longitude": "6.7571802",
    "naam": "Bloemhofbrug",
    "stad": "Overschild",
    "provincie": "Groningen",
    "ndwID": [
      "NLOSK000600352900141"
    ]
  },
  {
    "id": "704",
    "latitude": "52.0730303351745",
    "longitude": "4.37710730036338",
    "naam": "Wijkerbrug",
    "stad": "Voorburg",
    "provincie": "Zuid-Holland",
    "ndwID": []
  },
  {
    "id": "708",
    "latitude": "52.3059290472426",
    "longitude": "4.8096172691488",
    "naam": "Bosrandbrug",
    "stad": "Schiphol",
    "provincie": "Noord-Holland",
    "ndwID": []
  },
  {
    "id": "723",
    "latitude": "53.0741647321596",
    "longitude": "5.33493282860727",
    "naam": "Lorentzsluizen noord",
    "stad": "Kornwerderzand",
    "provincie": "Friesland",
    "ndwID": [
      "NLKWZ003010404100552"
    ]
  },
  {
    "id": "753",
    "latitude": "52.0009607735",
    "longitude": "4.6934139207",
    "naam": "Julianasluisbrug Zuid",
    "stad": "Gouda",
    "provincie": "",
    "ndwID": [
      "NLGOU002700536600143"
    ]
  },
  {
    "id": "1007",
    "latitude": "51.6875472595292",
    "longitude": "4.61482581935108",
    "naam": "Roodevaartbrug",
    "stad": "Moerdijk",
    "provincie": "Noord-Brabant",
    "ndwID": []
  },
  {
    "id": "1143",
    "latitude": "52.2148390061843",
    "longitude": "4.62038244190386",
    "naam": "Meerbrug",
    "stad": "Nieuwe wetering",
    "provincie": "Noord-Holland",
    "ndwID": [
      "NLABE002010537100018"
    ]
  },
  {
    "id": "1145",
    "latitude": "52.4978398236022",
    "longitude": "4.77384625918236",
    "naam": "Zaanbrug",
    "stad": "Wormerveer",
    "provincie": "Noord-Holland",
    "ndwID": []
  },
  {
    "id": "1146",
    "latitude": "52.4272846778732",
    "longitude": "4.81744884630706",
    "naam": "schiethavenbrug",
    "stad": "Zaandam",
    "provincie": "Noord-Holland",
    "ndwID": []
  },
  {
    "id": "1147",
    "latitude": "52.8020289674463",
    "longitude": "4.99840701425065",
    "naam": "Alkmaarsebrug",
    "stad": "Middenmeer",
    "provincie": "Noord-Holland",
    "ndwID": [
      "NLWIW002440514100195"
    ]
  },
  {
    "id": "1184",
    "latitude": "51.8546270133761",
    "longitude": "5.82360148429871",
    "naam": "Sluis Weurt",
    "stad": "Nijmegen",
    "provincie": "Gelderland",
    "ndwID": []
  },
  {
    "id": "1191",
    "latitude": "51.3330194992037",
    "longitude": "3.82041394067202",
    "naam": "Oostsluis zuid",
    "stad": "Terneuzen",
    "provincie": "Zeeland",
    "ndwID": []
  },
  {
    "id": "1192",
    "latitude": "51.3296980482",
    "longitude": "3.8160496806",
    "naam": "Westsluis noord",
    "stad": "Terneuzen",
    "provincie": "Zeeland",
    "ndwID": [
      "NLTNZ001300522600307"
    ]
  },
  {
    "id": "1193",
    "latitude": "51.3360552744666",
    "longitude": "3.81977409124374",
    "naam": "Oostsluis noord",
    "stad": "Terneuzen",
    "provincie": "Zeeland",
    "ndwID": []
  },
  {
    "id": "1194",
    "latitude": "51.3267563900272",
    "longitude": "3.81830960512161",
    "naam": "Westsluis zuid",
    "stad": "Terneuzen",
    "provincie": "Zeeland",
    "ndwID": [
      "NLTNZ001300522400303"
    ]
  },
  {
    "id": "1195",
    "latitude": "52.9344758054",
    "longitude": "5.0416661385",
    "naam": "Brug Afsluitdijk Buitenhoofd",
    "stad": "Den Oever",
    "provincie": "Noord-Holland",
    "ndwID": [
      "NLWRG003020404700328"
    ]
  },
  {
    "id": "1196",
    "latitude": "52.1256306352",
    "longitude": "4.6627903969",
    "naam": "Swaenswijkbrug",
    "stad": "Alphen aan den Rijn",
    "provincie": "Zuid-Holland",
    "ndwID": [
      "NLAPN002062254200366"
    ]
  },
  {
    "id": "1197",
    "latitude": "51.8681696523",
    "longitude": "4.9988304518",
    "naam": "Schotdeurensebrug",
    "stad": "Arkel",
    "provincie": "Zuid-Holland",
    "ndwID": [
      "NLARK0105B0426000008"
    ]
  },
  {
    "id": "1198",
    "latitude": "52.1348208761",
    "longitude": "4.6630636396",
    "naam": "Koningin Julianabrug",
    "stad": "Alphen aan den Rijn",
    "provincie": "Zuid-Holland",
    "ndwID": [
      "NLAPN002062253700374"
    ]
  },
  {
    "id": "1199",
    "latitude": "52.1348208761",
    "longitude": "4.6630636396",
    "naam": "Sloebrug",
    "stad": "Vlissingen",
    "provincie": "Zeeland",
    "ndwID": [
      "NLVLI001340492400037"
    ]
  },
  {
    "id": "1200",
    "latitude": 52.6633027184829,
    "longitude": 6.10068249563837,
    "naam": "Beukersgrachtbrug",
    "stad": "Wanneperveen",
    "provincie": "Overijssel",
    "ndwID": [
      "NLZWS000890315000001"
    ]
  },
  {
    "id": "1201",
    "latitude": 52.1903537852533,
    "longitude": 4.42962661321816,
    "naam": "Sandtlaanbrug",
    "stad": "Katwijk",
    "provincie": "Zuid-Holland",
    "ndwID": [
      "NLRBG002050421900078"
    ]
  },
  {
    "id": "1202",
    "latitude": 51.8310920504257,
    "longitude": 4.96783770560788,
    "naam": "Hoge brug over Grote Merwedesluis",
    "stad": "Gorinchem",
    "provincie": "Zuid-Holland",
    "ndwID": [
      "NLGOR001040552400232"
    ]
  },
  {
    "id": "1203",
    "latitude": 51.9493148264553,
    "longitude": 5.05071482519873,
    "naam": "Zwaanskuikenbrug",
    "stad": "Lexmond",
    "provincie": "Utrecht",
    "ndwID": [
      "NLLXM001040550200071"
    ]
  },
  {
    "id": "1204",
    "latitude": 52.1288147897445,
    "longitude": 4.66275118888742,
    "naam": "Alphensebrug",
    "stad": "Alphen aan den Rijn",
    "provincie": "Zuid-Holland",
    "ndwID": [
      "NLAPN002062254000366"
    ]
  },
  {
    "id": "1205",
    "latitude": 52.1778487609996,
    "longitude": 4.44742977619171,
    "naam": "Joop van der Reijdenbrug",
    "stad": "Valkenburg",
    "provincie": "Zuid-Holland",
    "ndwID": [
      "NLRBG002054318300055"
    ]
  },
  {
    "id": "1206",
    "latitude": 51.9953249451086,
    "longitude": 5.09745710295874,
    "naam": "Hoge brug over de Grote Sluis Vianen",
    "stad": "Vianen",
    "provincie": "Zuid-Holland",
    "ndwID": [
      "NLVAN001040549500008"
    ]
  },
  {
    "id": "1206",
    "latitude": 51.9928422147669,
    "longitude": 5.09753747607115,
    "naam": "Julianabrug Vianen",
    "stad": "Vianen",
    "provincie": "Zuid-Holland",
    "ndwID": [
      "NLVAN001040549700011"
    ]
  },
  {
    "id": "596",
    "latitude": "53.320588556801",
    "longitude": "6.9405135512352",
    "naam": "Zeesluis Delfzijl Noord",
    "stad": "Farmsum",
    "provincie": "Groningen",
    "ndwID": [
      "NLFAR000600353900005"
    ]
  },
  {
    "id": "1207",
    "latitude": 51.9688978442195,
    "longitude": 5.07242786632221,
    "naam": "Bolgerijensebrug",
    "stad": "Vianen",
    "provincie": "Zuid-Holland",
    "ndwID": [
      "NLVAN001040549900044"
    ]
  },
  {
    "id": "1208",
    "latitude": 51.8310920504257,
    "longitude": 4.96783770560788,
    "naam": "Korte brug over Grote Merwedesluis",
    "stad": "Gorinchem",
    "provincie": "Zuid-Holland",
    "ndwID": [
      "NLGOR001040552200231"
    ]
  },
  {
    "id": "1209",
    "latitude": 52.101303,
    "longitude": 4.939518,
    "naam": "Kleinjansbrug",
    "stad": "Putkop",
    "provincie": "",
    "ndwID": [
      "NLHAM002060774700108"
    ]
  },
  {
    "id": "1210",
    "latitude": 52.13567,
    "longitude": 4.468226,
    "naam": "Hooghkamerbrug",
    "stad": "Leiden",
    "provincie": "",
    "ndwID": [
      "NLVOS002050419300002",
      "NLVOS002050419400002"
    ]
  },
  {
    "id": "1212",
    "latitude": 52.15094,
    "longitude": 4.463953,
    "naam": "Waddingerbrug",
    "stad": "Leiden",
    "provincie": "",
    "ndwID": [
      "NLLID002050420200020",
      "NLLID002050420300020"
    ]
  },
  {
    "id": "1214",
    "latitude": 52.172555,
    "longitude": 4.559276,
    "naam": "Hoogmade, brug",
    "stad": "Hoogmade",
    "provincie": "",
    "ndwID": [
      "NLHGM0201J0580400042"
    ]
  },
  {
    "id": "1215",
    "latitude": 52.490414,
    "longitude": 6.061953,
    "naam": "IJsselspoorbrug, Hattem",
    "stad": "Hattem",
    "provincie": "",
    "ndwID": [
      "NLHTM000840436900912",
      "NLHTM000840437000912"
    ]
  },
  {
    "id": "1217",
    "latitude": 52.686103,
    "longitude": 6.849432,
    "naam": "Spoorbrug NAM",
    "stad": "Zandpol",
    "provincie": "",
    "ndwID": [
      "NLSKL000790598600087"
    ]
  },
  {
    "id": "1218",
    "latitude": 52.159138,
    "longitude": 6.213177,
    "naam": "Eefde, spoorbrug",
    "stad": "Eefde",
    "provincie": "",
    "ndwID": [
      "NLEFE000810830800018"
    ]
  },
  {
    "id": "1219",
    "latitude": 52.169495,
    "longitude": 4.515629,
    "naam": "Zijlbrug",
    "stad": "Leiden",
    "provincie": "",
    "ndwID": [
      "NLLID002010537500132"
    ]
  },
  {
    "id": "1220",
    "latitude": 52.076087,
    "longitude": 4.384385,
    "naam": "Voorburg, voetbrug",
    "stad": "Voorburg",
    "provincie": "",
    "ndwID": [
      "NLVOB002010778900277",
      "NLVOB002010778800277"
    ]
  },
  {
    "id": "1222",
    "latitude": 51.056366,
    "longitude": 5.811793,
    "naam": "Born, brug over de Gulyck-Gelderhaven",
    "stad": "Born",
    "provincie": "",
    "ndwID": [
      "NLBON151A10779900002"
    ]
  },
  {
    "id": "1223",
    "latitude": 51.498789,
    "longitude": 5.250346,
    "naam": "Brug Kattenberg",
    "stad": "Landgoed Baest",
    "provincie": "",
    "ndwID": [
      "NLLGB001240584800434"
    ]
  },
  {
    "id": "1224",
    "latitude": 53.243249,
    "longitude": 6.523978,
    "naam": "Zernikebrug",
    "stad": "Groningen",
    "provincie": "",
    "ndwID": [
      "NLGRQ000065661400074"
    ]
  },
  {
    "id": "1225",
    "latitude": 53.322445,
    "longitude": 6.879275,
    "naam": "Brug in RW33",
    "stad": "Appingedam",
    "provincie": "",
    "ndwID": [
      "NLAPP000115443400211"
    ]
  },
  {
    "id": "1226",
    "latitude": 53.242433,
    "longitude": 6.252298,
    "naam": "Eibersburen, brug",
    "stad": "Eibersburen",
    "provincie": "",
    "ndwID": [
      "NLGKN000030504800247",
      "NLGKN000030504700247"
    ]
  },
  {
    "id": "1228",
    "latitude": 53.047759,
    "longitude": 5.836145,
    "naam": "Polslootbrug",
    "stad": "Akkrum",
    "provincie": "",
    "ndwID": [
      "NLAKR0039B2258600018"
    ]
  },
  {
    "id": "1229",
    "latitude": 53.055036,
    "longitude": 5.512023,
    "naam": "Hollanderset, brug",
    "stad": "Bolsward",
    "provincie": "",
    "ndwID": [
      "NLBOL000550370300006"
    ]
  },
  {
    "id": "1230",
    "latitude": 52.966091,
    "longitude": 5.651098,
    "naam": "Jelteslootbrug",
    "stad": "Lippenwoude",
    "provincie": "",
    "ndwID": [
      "NLLWO000500370100239",
      "NLLWO000500370000239"
    ]
  },
  {
    "id": "1232",
    "latitude": 53.025261,
    "longitude": 5.642498,
    "naam": "Geeuwbrug",
    "stad": "Sneek",
    "provincie": "",
    "ndwID": [
      "NLSNK000570341800022",
      "NLSNK000570341900022",
      "NLSNK000574556500022"
    ]
  },
  {
    "id": "1235",
    "latitude": 51.363616,
    "longitude": 5.741143,
    "naam": "Brug Half Twaalf",
    "stad": "Someren-Eind",
    "provincie": "",
    "ndwID": [
      "NLSOM001210401500573"
    ]
  },
  {
    "id": "1236",
    "latitude": 51.352051,
    "longitude": 5.743192,
    "naam": "Sluis 12, brug over benedenhoofd",
    "stad": "Someren",
    "provincie": "",
    "ndwID": [
      "NLSOM001210401700586"
    ]
  },
  {
    "id": "1237",
    "latitude": 51.695755,
    "longitude": 5.301246,
    "naam": "Diezebrug",
    "stad": "'s-Hertogenbosch",
    "provincie": "",
    "ndwID": [
      "NLHTB001210673800059",
      "NLHTB001214210900059"
    ]
  },
  {
    "id": "1239",
    "latitude": 51.577298,
    "longitude": 5.586487,
    "naam": "Sluis 5, brug over benedenhoofd",
    "stad": "Erp",
    "provincie": "",
    "ndwID": [
      "NLERP001210400700301"
    ]
  },
  {
    "id": "1240",
    "latitude": 52.089015,
    "longitude": 4.739631,
    "naam": "Burgemeester Crolesbrug",
    "stad": "Bodegraven",
    "provincie": "",
    "ndwID": [
      "NLBOG002065520000290"
    ]
  },
  {
    "id": "1241",
    "latitude": 52.147504,
    "longitude": 4.524086,
    "naam": "Zoeterwoude-Rijndijk, brug in de A-4",
    "stad": "Zoeterwoude-Rijndijk",
    "provincie": "",
    "ndwID": [
      "NLLDD002060527900491"
    ]
  },
  {
    "id": "1242",
    "latitude": 52.382931,
    "longitude": 4.892376,
    "naam": "Amsterdam, spoorbrug",
    "stad": "Amsterdam",
    "provincie": "",
    "ndwID": [
      "NLAMS0212B0462700011"
    ]
  },
  {
    "id": "1243",
    "latitude": 52.154674,
    "longitude": 4.857023,
    "naam": "Slikkendammerbrug",
    "stad": "Slikkendam",
    "provincie": "",
    "ndwID": [
      "NLSKM0206A5523700131"
    ]
  },
  {
    "id": "1244",
    "latitude": 52.014725,
    "longitude": 4.693823,
    "naam": "Steve Bikobrug",
    "stad": "Gouda",
    "provincie": "",
    "ndwID": [
      "NLGOU002130435700007"
    ]
  },
  {
    "id": "1245",
    "latitude": 52.503154,
    "longitude": 5.531911,
    "naam": "Lelystad, brug in de A-6",
    "stad": "Lelystad",
    "provincie": "",
    "ndwID": [
      "NLLEY002315788100271"
    ]
  },
  {
    "id": "1246",
    "latitude": 52.225776,
    "longitude": 5.086296,
    "naam": "Kortenhoef, brug",
    "stad": "Kortenhoef",
    "provincie": "",
    "ndwID": [
      "NLKTH0227A0691700036"
    ]
  },
  {
    "id": "1247",
    "latitude": 52.220042,
    "longitude": 5.12409,
    "naam": "Brug in de weg Nieuw-loosdrecht-`s-Graveland",
    "stad": "Hilversum",
    "provincie": "",
    "ndwID": [
      "NLHVS0227A0691900063"
    ]
  },
  {
    "id": "1248",
    "latitude": 52.21958,
    "longitude": 5.122611,
    "naam": "Kortenhoef, brug in de N-201",
    "stad": "Kortenhoef",
    "provincie": "",
    "ndwID": [
      "NLHVS227A10778100000",
      "NLHVS227A10778100001"
    ]
  },
  {
    "id": "1249",
    "latitude": 52.219212,
    "longitude": 5.122749,
    "naam": "Hilversum, brug in de N-201",
    "stad": "Hilversum",
    "provincie": "",
    "ndwID": [
      "NLKTH227A10778300001"
    ]
  },
  {
    "id": "1250",
    "latitude": 52.397757,
    "longitude": 5.246159,
    "naam": "Almere, brug in de Buitenring",
    "stad": "Almere",
    "provincie": "",
    "ndwID": [
      "NLAER002315553300018"
    ]
  },
  {
    "id": "1251",
    "latitude": 52.660132,
    "longitude": 4.800607,
    "naam": "BOL spoorbrug",
    "stad": "Alkmaar",
    "provincie": "",
    "ndwID": [
      "NLALK002430513300050"
    ]
  },
  {
    "id": "1252",
    "latitude": 52.451745,
    "longitude": 4.819383,
    "naam": "Prins Bernhardbrug, Zaandam",
    "stad": "Zaandam",
    "provincie": "",
    "ndwID": [
      "NLZAA002360562700041"
    ]
  },
  {
    "id": "1253",
    "latitude": 52.394777,
    "longitude": 5.2349,
    "naam": "Almere, brug in de N-702",
    "stad": "Almere",
    "provincie": "",
    "ndwID": [
      "NLAER002325550600028"
    ]
  },
  {
    "id": "1254",
    "latitude": 52.41109,
    "longitude": 5.587886,
    "naam": "Brug in de N-302",
    "stad": "Lelystad",
    "provincie": "",
    "ndwID": [
      "NLLEY002325787200356"
    ]
  },
  {
    "id": "1255",
    "latitude": 52.585452,
    "longitude": 4.982486,
    "naam": "Beets, brug in de A-7",
    "stad": "Beets",
    "provincie": "",
    "ndwID": [
      "NLBTS002415470100196"
    ]
  },
  {
    "id": "1256",
    "latitude": 52.902436,
    "longitude": 4.787681,
    "naam": "Koegrasspoorbrug",
    "stad": "Julianadorp",
    "provincie": "",
    "ndwID": [
      "NLBRZ002340561300742",
      "NLBRZ002340561400742"
    ]
  },
  {
    "id": "1258",
    "latitude": 53.202925,
    "longitude": 6.595822,
    "naam": "Groningen, spoorbrug",
    "stad": "Groningen",
    "provincie": "",
    "ndwID": [
      "NLGRQ0013B2250900017"
    ]
  },
  {
    "id": "1259",
    "latitude": 51.57446,
    "longitude": 6.085116,
    "naam": "Bergerheide, brug over benedenhoofd",
    "stad": "Bergerheide",
    "provincie": "",
    "ndwID": [
      "NLWEL0150U0793100029"
    ]
  },
  {
    "id": "1260",
    "latitude": 51.901202,
    "longitude": 4.227004,
    "naam": "Calandbrug, verkeers-/spoorbrug",
    "stad": "Rozenburg",
    "provincie": "",
    "ndwID": [
      "NLRTM001160350400018",
      "NLRTM001160350400000",
      "NLRTM001160350400019",
      "NLRTM001160350500018"
    ]
  },
  {
    "id": "1261",
    "latitude": 53.179717,
    "longitude": 5.835308,
    "naam": "Brug Hempens/Teerns",
    "stad": "Hempens",
    "provincie": "",
    "ndwID": [
      "NLHPE0022A0325400026"
    ]
  },
  {
    "id": "1262",
    "latitude": 53.316828,
    "longitude": 6.159258,
    "naam": "Willem Loresluis, brug over buitenhoofd",
    "stad": "Dokkumer Nieuwe Zijlen",
    "provincie": "",
    "ndwID": [
      "NLENG000270319200075"
    ]
  },
  {
    "id": "1263",
    "latitude": 52.899513,
    "longitude": 5.463595,
    "naam": "Galamadammen, brug",
    "stad": "Galamadammen",
    "provincie": "",
    "ndwID": [
      "NLKDM000504513600088",
      "NLKDM000504513700088",
      "NLKDM000500369600088",
      "NLKDM000500369700088",
      "NLKDM000500369800088"
    ]
  },
  {
    "id": "1268",
    "latitude": 53.198187,
    "longitude": 5.769873,
    "naam": "Leeuwarden, spoorbrug",
    "stad": "Leeuwarden",
    "provincie": "",
    "ndwID": [
      "NLLWR000270323000439"
    ]
  },
  {
    "id": "1269",
    "latitude": 53.22059,
    "longitude": 5.853178,
    "naam": "Leeuwarden, brug",
    "stad": "Leeuwarden",
    "provincie": "",
    "ndwID": [
      "NLLWR000290660700046"
    ]
  },
  {
    "id": "1270",
    "latitude": 53.163915,
    "longitude": 5.932757,
    "naam": "Fonejachtbrug",
    "stad": "Warten",
    "provincie": "",
    "ndwID": [
      "NLWTN000210355800217",
      "NLWTN000210355700217"
    ]
  },
  {
    "id": "1272",
    "latitude": 52.170617,
    "longitude": 4.990536,
    "naam": "Breukelen, spoorbrug",
    "stad": "Breukelen",
    "provincie": "",
    "ndwID": [
      "NLRUK002240486000102"
    ]
  },
  {
    "id": "1273",
    "latitude": 52.125624,
    "longitude": 4.662942,
    "naam": "Swaenswijkbrug",
    "stad": "Alphen aan den Rijn",
    "provincie": "",
    "ndwID": [
      "NLAPN002062254400364"
    ]
  },
  {
    "id": "1274",
    "latitude": 52.278188,
    "longitude": 4.954914,
    "naam": "Abcoude, brug in de A-2",
    "stad": "Abcoude",
    "provincie": "",
    "ndwID": [
      "NLABC0222A0716300021"
    ]
  },
  {
    "id": "1275",
    "latitude": 51.920257,
    "longitude": 4.499996,
    "naam": "Boerengatbrug",
    "stad": "Rotterdam",
    "provincie": "",
    "ndwID": [
      "NLRTM0102D0418900002"
    ]
  },
  {
    "id": "1276",
    "latitude": 52.00214,
    "longitude": 4.774008,
    "naam": "Haastrecht, brug",
    "stad": "Haastrecht",
    "provincie": "",
    "ndwID": [
      "NLHCH0226B0478200295"
    ]
  },
  {
    "id": "1277",
    "latitude": 52.004567,
    "longitude": 4.742204,
    "naam": "Goverwellebrug",
    "stad": "Gouda",
    "provincie": "",
    "ndwID": [
      "NLHCH0226B0478400318",
      "NLHCH0226B0478500318"
    ]
  },
  {
    "id": "1279",
    "latitude": 52.616575,
    "longitude": 4.768233,
    "naam": "Leeghwaterbrug, Alkmaar",
    "stad": "Alkmaar",
    "provincie": "",
    "ndwID": [
      "NLALK002340558000383",
      "NLALK002340557800383"
    ]
  },
  {
    "id": "1281",
    "latitude": 52.843316,
    "longitude": 5.715409,
    "naam": "Riensluis, brug over binnenhoofd",
    "stad": "Lemmer",
    "provincie": "",
    "ndwID": [
      "NLLMR007844777000005"
    ]
  },
  {
    "id": "1282",
    "latitude": 52.471463,
    "longitude": 4.81358,
    "naam": "Julianabrug, Zaandijk",
    "stad": "Zaandijk",
    "provincie": "",
    "ndwID": [
      "NLZAD002360565900068",
      "NLZAD002360565700068"
    ]
  },
  {
    "id": "1284",
    "latitude": 52.528528,
    "longitude": 4.95695,
    "naam": "Purmerend, brug in de N-244",
    "stad": "Purmerend",
    "provincie": "",
    "ndwID": [
      "NLPUM002415470300274"
    ]
  },
  {
    "id": "1285",
    "latitude": 53.32523,
    "longitude": 5.992518,
    "naam": "Altenabrege",
    "stad": "Dokkum",
    "provincie": "",
    "ndwID": [
      "NLDOK000270320600195",
      "NLDOK000270320600202"
    ]
  },
  {
    "id": "1286",
    "latitude": 52.999563,
    "longitude": 5.706129,
    "naam": "Uitwellingerga, brug",
    "stad": "Uitwellingerga",
    "provincie": "",
    "ndwID": [
      "NLSNK000210356700465",
      "NLSNK000210356600465",
      "NLSNK000210356600463",
      "NLSNK000210356700463"
    ]
  },
  {
    "id": "1287",
    "latitude": 52.852642,
    "longitude": 5.677102,
    "naam": "Prinses Margrietsluis, brug over benedenhoofd",
    "stad": "Lemmer",
    "provincie": "",
    "ndwID": [
      "NLLMR000210357300637",
      "NLLMR000210357300634"
    ]
  },
  {
    "id": "1288",
    "latitude": 52.089973,
    "longitude": 5.090076,
    "naam": "Muntsluis, brug over bovenhoofd",
    "stad": "Utrecht",
    "provincie": "",
    "ndwID": [
      "NLUTC002260441700011",
      "NLUTC002260441700010"
    ]
  },
  {
    "id": "1289",
    "latitude": 51.578945,
    "longitude": 5.084587,
    "naam": "Brug Lijnsheike",
    "stad": "Tilburg",
    "provincie": "",
    "ndwID": [
      "NLTLB001242255800273"
    ]
  },
  {
    "id": "1290",
    "latitude": 52.712443,
    "longitude": 6.451229,
    "naam": "Vlinderbrug",
    "stad": "Hoogeveen",
    "provincie": "",
    "ndwID": [
      "NLHOV000765753100230"
    ]
  },
  {
    "id": "1291",
    "latitude": 51.804116,
    "longitude": 4.876556,
    "naam": "Biesboschsluis, brug over binnenhoofd",
    "stad": "Werkendam",
    "provincie": "",
    "ndwID": [
      "NLWKD001090586900111",
      "NLWKD001090586900112"
    ]
  },
  {
    "id": "1292",
    "latitude": 52.401461,
    "longitude": 4.900129,
    "naam": "Langebrug, Amsterdam",
    "stad": "Amsterdam",
    "provincie": "",
    "ndwID": [
      "NLAMS0233H0429000008",
      "NLAMS0233H0429000011"
    ]
  },
  {
    "id": "1293",
    "latitude": 52.182073,
    "longitude": 4.840762,
    "naam": "Overzetbrug",
    "stad": "De Hoef",
    "provincie": "",
    "ndwID": [
      "NLNWK002235768800104"
    ]
  },
  {
    "id": "1294",
    "latitude": 52.134821,
    "longitude": 4.663064,
    "naam": "Koningin Julianabrug, Alphen aan den Rijn",
    "stad": "Alphen aan den Rijn",
    "provincie": "",
    "ndwID": [
      "NLAPN002062253900374"
    ]
  },
  {
    "id": "1295",
    "latitude": 52.943896,
    "longitude": 5.644208,
    "naam": "Brug Woudsend",
    "stad": "Woudsend",
    "provincie": "",
    "ndwID": [
      "NLWSD0050B5333600040",
      "NLWSD0050B5333500040"
    ]
  },
  {
    "id": "1296",
    "latitude": 52.347321,
    "longitude": 5.241369,
    "naam": "Almere, Kasteelbrug",
    "stad": "Almere",
    "provincie": "",
    "ndwID": [
      "NLAER0232A5558600103"
    ]
  },
  {
    "id": "1297",
    "latitude": 51.578616,
    "longitude": 5.06618,
    "naam": "Tilburg, brug in de Midden-Brabantweg (N261)",
    "stad": "Tilburg",
    "provincie": "",
    "ndwID": [
      "NLTLB001242261300260"
    ]
  },
  {
    "id": "1298",
    "latitude": 51.583157,
    "longitude": 5.027607,
    "naam": "Burg. van Voorst fietsbrug",
    "stad": "Tilburg",
    "provincie": "",
    "ndwID": [
      "NLTLB001246380900232",
      "NLTLB001246380900233"
    ]
  },
  {
    "id": "1300",
    "latitude": 52.171043,
    "longitude": 4.995592,
    "naam": "Breukelen, voetbrug",
    "stad": "Breukelen",
    "provincie": "",
    "ndwID": [
      "NLRUK002240723300105"
    ]
  },